Unnamed: 0,DonationAmount,FundAge,FundName,Lat,Location,Lon,NumEmployer,NumGS,NumNews,NumProject,NumSpecialFund,NumVolunteer,OriginalCapital,ProjectIncome,ProjectSpend,Sector,SubsidizeAmount,Province,SectorNum,ProvinceNum
0,314726588.47,3373,爱佑慈善基金会,39.928953,北京市朝阳区,116.447908,39.0,328000,326,17,0.0,221.0,20000000.0,17841000,13151000,儿童，医疗救助,,北京,"6,15",1
1,1205500000.0,8063,北京大学教育基金会,40.002921,北京市海淀区,116.316913,30.0,1470000,145,18,0.0,19.0,20000000.0,7754000,69709528,教育，科学研究,49547930.0,北京,"27,10",1
2,41940000.0,2924,北京交通大学教育基金会,39.956438,北京市海淀区,116.343808,10.0,1410000,149,29,0.0,33.0,20000000.0,65266617,124170192,教育，科学研究,0.0,北京,"27,10",1
3,53261520.0,3693,传媒大学教育基金会,39.918224,北京市朝阳区,116.544931,7.0,944000,22,74,0.0,30.0,20000000.0,20810461,17364138,国际事务，教育，科学研究,5500000.0,北京,"26,27,10",1
4,4100000.0,3147,海仓慈善基金会,39.938745,北京市东城区,116.439148,,749000,26,2,,,50000000.0,0,4024000,安全救灾，扶贫助困，教育,0.0,北京,"24,19,27",1
5,2994549.22,3429,华民慈善基金会,39.918262,北京市东城区,116.431709,15.0,671000,301,8,0.0,25.0,50000000.0,3400000,50208621,安全救灾，创业就业，扶贫助困，老年人,360000.0,北京,"24,25,19,22",1
6,444723394.42,2755,华润慈善基金会,22.547342,广东省深圳市罗湖区,114.117283,1.0,259000,33,53,0.0,140.0,50000000.0,372799000,590490498,安全救灾，扶贫助困，环境，三农,1000000.0,广东,"24,19,17,16",19
7,52500000.0,3805,凯风公益基金会,39.954639,北京市朝阳区,116.461915,5.0,602000,63,24,0.0,0.0,50000000.0,0,29388050,扶贫助困，公益事业发展,0.0,北京,"19,28",1
8,416000.0,3772,李四光地质科学奖基金会,39.933622,北京市西城区,116.342759,0.0,8400,17,15,0.0,0.0,20000000.0,0,8765275,科学研究，文化,0.0,北京,"10,13",1
9,67950000.0,3734,南都公益基金会,39.9252,北京市朝阳区,116.463292,23.0,287000,621,16,0.0,17.0,100000000.0,10530000,4493336,创业就业，公益事业发展，教育,16545156.44,北京,"25,28,27",1
10,40000000.0,3419,人保慈善基金会,40.019112,北京市海淀区,116.319294,3.0,106000,21,20,0.0,8138.0,50000000.0,0,46048813,残疾，环境，教育，三农,0.0,北京,"23,17,27,16",1
11,1801183790.39,8588,清华大学教育基金会,40.000912,北京市海淀区,116.336114,38.0,689000,269,51,1.0,40.0,20000000.0,1906316247,1232052471,教育，科学研究,428236470.0,北京,"27,10",1
12,41050000.0,3302,桃源居公益事业发展基金会,22.619876,广东省深圳市宝安区,113.864848,4.0,11400,66,27,0.0,0.0,100000000.0,41164980,61378780,社区发展,0.0,广东,5,19
13,27380000.0,3889,王振滔慈善基金会,28.068516,浙江省温州市永嘉县,120.69512,3.0,17100,180,19,0.0,565.0,20000000.0,2820784,27941224,扶贫助困，公益事业发展,0.0,浙江,"19,28",11
14,83218869.0,5690,吴阶平医学基金会,39.912303,北京市朝阳区,116.446066,10.0,91100,39,30,0.0,5.0,20000000.0,139031345,96912499,教育，科学研究，卫生保健，医疗救助,0.0,北京,"27,10,11,15",1
15,3820000.0,10197,吴作人国际美术基金会,39.992755,北京市海淀区,116.316475,5.0,81700,42,34,0.0,43.0,3000000.0,2961010,1188582,艺术,1000000.0,北京,14,1
16,118900000.0,4430,香江社会救助基金会,22.942957,广东省广州市番禺区,113.393422,3.0,51600,184,26,0.0,20000.0,20000000.0,6365000,23565962,安全救灾，儿童，教育,0.0,广东,"24,6,27",19
17,80607453.67,3805,友成企业家扶贫基金会,39.953286,北京市朝阳区,116.461374,24.0,226000,259,43,2.0,43.0,20000000.0,47053855,1910657,安全救灾，残疾，扶贫助困，公益事业发展，国际事务，文化，医疗救助，志愿服务,,北京,"24,23,19,28,26,13,15,18",1
18,6395686669.29,11966,中国癌症基金会,39.880591,北京市朝阳区,116.45593,26.0,651000,123,54,25.0,2500.0,8000000.0,3039042995,2643108028,国际事务，科学研究，医疗救助,1000000.0,北京,"26,10,15",1
19,223244208.4,8539,中国红十字基金会,39.923323,北京市东城区,116.427856,46.0,1310000,1180,40,43.0,4.0,8000000.0,502476600,510069650,安全救灾，教育，卫生保健，医疗救助,11850000.0,北京,"24,27,11,15",1
20,22074875.0,6605,中华国际科学交流基金会,39.92032,北京市西城区,116.349096,9.0,279000,29,8,0.0,0.0,8000000.0,25140000,20392000,教育，科学研究,4000000.0,北京,"27,10",1
21,59329348.0,6669,中国禁毒基金会,39.913862,北京市东城区,116.409465,11.0,151000,122,18,0.0,0.0,50000000.0,41679220,37239220,公共安全，医疗救助,0.0,北京,"4,15",1
22,28416352.24,7186,中国发展研究基金会,39.961963,北京市东城区,116.415162,26.0,1080000,231,16,0.0,40.0,40000000.0,88407074,70962600,国际事务，教育，科学研究,,北京,"26,27,10",1
23,11450000.0,9253,中国马克思主义研究基金会,40.018382,北京市海淀区,116.286258,9.0,839000,28,40,0.0,12.0,8000000.0,1980100,8901476,科学研究,0.0,北京,10,1
24,7000000.0,4241,宝钢教育基金会,31.420016,上海市宝山区,121.44113,4.0,259000,54,10,0.0,20.0,50000000.0,7002000,31271699,教育,0.0,上海,27,3
25,169273599.29,3486,慈济慈善事业基金会,,江苏省苏州市姑苏区,,26.0,341000,53,25,0.0,6000.0,100000000.0,154031724,144530327,安全救灾，教育,0.0,江苏,"24,27",10
26,195577583.79,2924,华阳慈善基金会,24.538683,福建省厦门市湖里区,118.017903,0.0,690000,20,6,0.0,0.0,20000000.0,599721,307480307,教育，卫生保健,0.0,福建,"27,11",13
27,474227428.0,4022,浙江大学教育基金会,30.316343,浙江省杭州市西湖区,120.094151,40.0,1590000,291,21,741.0,168.0,50000000.0,475084029,177123929,教育，科学研究,2520000.0,浙江,"27,10",11
28,9847371.81,8152,中国听力医学发展基金会,39.945304,北京市海淀区,116.319814,5.0,148000,145,3,0.0,30.0,11000000.0,0,0,儿童，医疗救助,394000.0,北京,"6,15",1
29,1359952.81,7524,青岛市残疾儿童医疗康复基金会,36.102788,山东省青岛市市北区,120.409071,2.0,33000,0,2,2.0,0.0,4000000.0,737950,4000000,残疾，儿童，医疗救助,0.0,山东,"23,6,15",15
30,37000000.0,8938,中华社会文化发展基金会,39.936595,北京市东城区,116.448762,12.0,1540000,84,35,4.0,240.0,8000000.0,69565300,22972132,扶贫助困，国际事务，教育，文化,0.0,北京,"19,26,27,13",1
31,29358600.0,7371,中国法律援助基金会,39.90431,北京市宣武区,116.358738,20.0,769000,91,13,8.0,165.0,10000000.0,335335000,117056134,法律实施,,北京,12,1
32,76866800.0,6874,中国华侨公益基金会,39.949574,北京市东城区,116.431204,14.0,500000,570,52,41.0,0.0,18600000.0,125200931,107989000,安全救灾，儿童，教育，侨务，医疗救助,5185000.0,北京,"24,6,27,21,15",1
33,122380000.0,2968,招商局慈善基金会,22.497113,广东省深圳市南山区,113.91983,7.0,319000,156,108,0.0,1600.0,100000000.0,71275220,71425220,安全救灾，扶贫助困，教育，医疗救助,500000.0,广东,"24,19,27,15",19
34,1606270.44,13237,山东省儿童少年福利基金会,36.651423,山东省济南市市中区,117.003883,3.0,133000,1,7,0.0,100.0,4000000.0,647050,1096827,儿童，妇女，教育，青少年，医疗救助,0.0,山东,"6,7,27,1,15",15
35,3493500.0,10674,山东省老龄事业发展基金会,36.660068,山东省济南市市中区,117.001405,9.0,84300,15,7,0.0,0.0,4000000.0,2256098,2116098,公共服务，教育，老年人，文化，医疗救助,130000.0,山东,"20,27,22,13,15",15
36,387528185.11,12191,中国残疾人福利基金会,39.92674,北京市东城区,116.409245,57.0,911000,832,93,0.0,900.0,506210000.0,700493012,420929858,残疾，教育，心理健康，医疗救助,8161332.0,北京,"23,27,9,15",1
37,790953503.9,7518,中国初级卫生保健基金会,39.965555,北京市东城区,116.413558,10.0,204000,225,38,1.0,270.0,8000000.0,376024790,179799672,卫生保健，医疗救助,,北京,"11,15",1
38,359910226.0,13152,中国儿童少年基金会,39.914678,北京市东城区,116.430847,42.0,1480000,1119,31,35.0,8.0,8000000.0,279646659,159543426,安全救灾，儿童，教育，青少年，文化,,北京,"24,6,27,1,13",1
39,448795683.59,10367,中国扶贫基金会,39.974384,北京市海淀区,116.330237,130.0,941000,3223,50,0.0,44987.0,10000000.0,2133427248,2289261675,安全救灾，扶贫助困，国际事务,,北京,"24,19,26",1
40,542555473.4,10445,中国妇女发展基金会,39.914678,北京市东城区,116.430847,58.0,1180000,2130,25,0.0,11.0,10000000.0,805365482,758121991,安全救灾，妇女,,北京,"24,7",1
41,4150000.0,3196,中国古生物化石保护基金会,39.928115,北京市西城区,116.377049,4.0,34400,168,25,0.0,64.0,8000000.0,334800,9088215,科学研究,0.0,北京,10,1
42,200000.0,4235,山东省彩虹援助基金会,36.670906,山东省济南市市中区,117.003387,3.0,32900,0,4,0.0,0.0,8000000.0,0,1451200,扶贫助困，教育,0.0,山东,"19,27",15
43,17111031.9,5043,中国关心下一代健康体育基金会,39.951721,北京市海淀区,116.184188,7.0,615000,53,20,3.0,0.0,10000000.0,7942919,5753020,创业就业，儿童，教育，青少年，体育,0.0,北京,"25,6,27,1,2",1
44,413717475.48,4430,中国光彩事业基金会,39.899715,北京市西城区,116.341596,7.0,173000,64,44,4.0,0.0,30500000.0,309654517,404371199,扶贫助困，少数民族,,北京,"19,3",1
45,348631806.94,8818,中国光华科技基金会,39.951025,北京市东城区,116.401526,72.0,534000,539,61,7.0,0.0,8000000.0,315509105,304146263,扶贫助困，公益事业发展，教育，科学研究，三农，文化,16409668.22,北京,"19,28,27,10,16,13",1
46,46414027.84,12079,中国国际文化交流基金会,39.959591,北京市朝阳区,116.43852,1.0,445000,110,37,0.0,0.0,8000000.0,31521640,31521640,国际事务，教育，文化,,北京,"26,27,13",1
47,104660000.0,4687,中国华文教育基金会,39.929152,北京市西城区,116.346821,14.0,535000,502,228,0.0,0.0,10000000.0,96357826,96357826,教育，文化,2599000.0,北京,"27,13",1
48,17980000.0,3625,中国华夏文化遗产基金会,39.943738,北京市东城区,116.439294,10.0,151000,158,42,7.0,3.0,8000000.0,19318000,10747651,文化,1000000.0,北京,13,1
49,7154845.0,12669,安徽省儿童少年基金会,31.867564,安徽省合肥市瑶海区,117.301382,2.0,353000,24,10,0.0,0.0,4000000.0,4640441,3047400,安全救灾，儿童，教育,2165640.0,安徽,"24,6,27",12
50,1500000.0,10257,安徽省中小学幼儿教师奖励基金会,31.867938,安徽省合肥市庐阳区,117.288183,3.0,112000,1,6,0.0,3.0,2100000.0,0,1547448,教育,100000.0,安徽,27,12
51,100431175.0,3878,中国健康促进基金会,39.881264,北京市丰台区,116.299966,27.0,789000,372,21,12.0,0.0,15000000.0,77593297,56596048,卫生保健，心理健康，医疗救助,0.0,北京,"11,9,15",1
52,100000.0,3204,安徽天徽慈善基金会,31.877366,安徽省合肥市庐阳区,117.282921,,76500,0,1,,,2000000.0,100000,100000,安全救灾，扶贫助困,0.0,安徽,"24,19",12
53,4671200.0,8427,中国交响乐发展基金会,39.91236,北京市西城区,116.389016,5.0,132000,81,16,0.0,0.0,8000000.0,1079200,5096234,国际事务，艺术,0.0,北京,"26,14",1
54,53455657.1,11282,中国教师发展基金会,39.91777,北京市西城区,116.377234,7.0,3040000,67,37,6.0,11.0,30000000.0,54957200,55060645,教育,0.0,北京,27,1
55,68043208.65,7693,中国科学技术大学教育基金会,31.844201,安徽省合肥市包河区,117.273452,6.0,1010000,5,144,70.0,6.0,5800000.0,92843725,39435330,教育，科学研究,4000000.0,安徽,"27,10",12
56,491728473.0,4976,中国教育发展基金会,39.91777,北京市西城区,116.377234,3.0,964000,434,94,0.0,72.0,50000000.0,2892129887,3387257965,教育,46220000.0,北京,27,1
57,1675976.0,10104,温州市永乐科技奖励医疗救助基金会,28.012985,浙江省温州市鹿城区,120.678447,4.0,1680,1,8,0.0,15.0,2100000.0,2516476,923640,科学研究，三农,0.0,浙江,"10,16",11
58,1500000.0,8605,杭州市关爱孤儿基金会,30.277788,浙江省杭州市下城区,120.176683,1.0,30500,18,9,0.0,25.0,2100000.0,1880000,1616164,儿童，教育，医疗救助,500000.0,浙江,"6,27,15",11
59,3407500.0,7522,浙江省发展侨务事业基金会,30.268586,浙江省杭州市西湖区,120.158598,1.0,27100,1,10,0.0,0.0,2100000.0,2300000,2991000,侨务,0.0,浙江,21,11
60,39519050.28,9165,中国金融教育发展基金会,39.915597,北京市西城区,116.366158,14.0,1690000,126,62,0.0,7296.0,10000000.0,29850960,38687906,教育，科学研究,2484000.0,北京,"27,10",1
61,12150000.0,3010,浙江省网易慈善基金会,30.193687,浙江省杭州市滨江区,120.198864,0.0,237000,1,12,0.0,7.0,10000000.0,10234800,10234800,安全救灾，扶贫助困,0.0,浙江,"24,19",11
62,87131730.0,11414,中国老龄事业发展基金会,39.916621,北京市朝阳区,116.444037,5.0,512000,276,126,83.0,1000.0,8000000.0,174076180,126383192,公共服务，教育，老年人，卫生保健，文化,,北京,"20,27,22,11,13",1
63,101341400.0,3840,中国留学人才发展基金会,39.922009,北京市东城区,116.413951,15.0,2070000,106,43,6.0,15.0,8000000.0,106702200,49874640,教育,2500000.0,北京,27,1
64,94630000.0,11630,中国绿化基金会,39.961847,北京市东城区,116.432149,19.0,793000,611,62,0.0,10.0,8000000.0,178712320,44858166,国际事务，环境,1520000.0,北京,"26,17",1
65,11778141.32,4165,中国民航科普基金会,40.0211,北京市朝阳区,116.531069,5.0,570000,34,27,0.0,0.0,10000000.0,3320800,8851835,文化,0.0,北京,13,1
66,37000000.0,2889,中国农业大学教育基金会,40.012501,北京市海淀区,116.359446,4.0,883000,52,13,0.0,4.0,20460000.0,31396425,6589115,教育，科学研究，医疗救助,150000.0,北京,"27,10,15",1
67,472549737.1,10371,中国青少年发展基金会,39.998011,北京市朝阳区,116.463727,104.0,1720000,1998,24,6.0,8.0,8000000.0,467743817,387386490,儿童，国际事务，教育，青少年,,北京,"6,26,27,1",1
68,102051461.04,3698,中国人寿慈善基金会,39.923322,北京市西城区,116.36689,0.0,1960000,40,24,0.0,50.0,50000000.0,0,82454202,安全救灾，残疾，儿童，扶贫助困，教育，三农，卫生保健，医疗救助,0.0,北京,"24,23,6,19,27,16,11,15",1
69,17700000.0,9645,中国少年儿童文化艺术基金会,39.915264,北京市东城区,116.416698,12.0,1060000,181,16,13.0,90.0,8000000.0,101748860,340000,儿童，青少年，文化，艺术,0.0,北京,"6,1,13,14",1
70,43289250.0,10579,中国少数民族文化艺术基金会,39.959275,北京市朝阳区,116.44981,,2160000,21,20,,,8000000.0,43697650,22126611,文化，艺术,0.0,北京,"13,14",1
71,33511809.12,4430,中国社会福利基金会,39.893221,北京市西城区,116.365705,22.0,1810000,595,178,88.0,220.0,8000000.0,238078189,236945379,安全救灾，儿童，教育，青少年，医疗救助,,北京,"24,6,27,1,15",1
72,0.0,12847,中国宋庆龄基金会,39.97716,北京市西城区,116.397424,,1930000,654,2,,,8000000.0,0,2200000,儿童，妇女，国际事务，教育，青少年，卫生保健，医疗救助,,北京,"6,7,26,27,1,11,15",1
73,33900000.0,4254,中国医药卫生事业发展基金会,39.919901,北京市朝阳区,116.44277,20.0,2540000,117,30,2.0,0.0,8000000.0,30000000,67212650,扶贫助困，卫生保健，医疗救助,0.0,北京,"19,11,15",1
74,109000000.0,2940,中国移动慈善基金会,39.917333,北京市西城区,116.365982,7.0,15600000,80,24,0.0,100.0,100000000.0,114900000,114900000,安全救灾，儿童，公共服务，教育，医疗救助,0.0,北京,"24,6,20,27,15",1
75,12504175.2,10926,中国艺术节基金会,39.917346,北京市东城区,116.4065,11.0,1890000,35,8,12.0,0.0,8000000.0,1800000,890835,文化，艺术,305777.0,北京,"13,14",1
76,23896000.0,9191,浙江省扶贫基金会,30.269145,浙江省杭州市西湖区,120.162476,1.0,1160000,6,9,0.0,0.0,4000000.0,23383350,23383350,扶贫助困,2600000.0,浙江,19,11
77,18054339.4,3087,中国志愿服务基金会,39.913658,北京市东城区,116.427284,9.0,1260000,141,13,0.0,0.0,50000000.0,3063100,25218150,志愿服务,2642474.0,北京,18,1
78,123561377.15,8916,中华环境保护基金会,39.899272,北京市东城区,116.439274,23.0,1040000,497,80,5.0,7670.0,8000000.0,147741052,120320480,国际事务，环境,0.0,北京,"26,17",1
79,69952404.51,5477,中华健康快车基金会,39.939149,北京市东城区,116.437631,9.0,211000,128,11,0.0,266.0,8000000.0,48030737,33891918,国际事务，科学研究，卫生保健，医疗救助,,北京,"26,10,11,15",1
80,16000000.0,2881,中华少年儿童慈善救助基金会,39.93428,北京市西城区,116.37319,20.0,320000,1098,112,18.0,50000.0,20000000.0,216016450,122134351,儿童，扶贫助困，公益事业发展，教育，青少年，心理健康，医疗救助,3131524.53,北京,"6,19,28,27,1,9,15",1
81,53749497.1,3122,中华社会救助基金会,39.973772,北京市朝阳区,116.416754,27.0,2920000,481,89,8.0,0.0,10000000.0,58749022,60886079,创业就业，扶贫助困，教育，老年人，三农，社区发展，医疗救助,,北京,"25,19,27,22,16,5,15",1
82,72972180.0,3784,中华思源工程扶贫基金会,39.932608,北京市朝阳区,116.449839,37.0,122000,706,36,31.0,6000.0,8000000.0,45989054,97840995,安全救灾，扶贫助困，环境，教育，卫生保健,4921703.96,北京,"24,19,17,27,11",1
83,63612224.22,2916,中央财经大学教育基金会,39.96474,北京市海淀区,116.349248,10.0,1220000,68,11,0.0,155.0,20000000.0,17391104,10547500,国际事务，教育，科学研究,100000.0,北京,"26,27,10",1
84,89296039.38,4241,中远海运慈善基金会,39.911782,北京市西城区,116.366484,5.0,37100,12,79,6.0,154.0,100000000.0,89203500,105181700,扶贫助困,0.0,北京,19,1
85,4861426.0,8904,周培源基金会,40.000533,北京市朝阳区,116.408609,5.0,29600,27,9,0.0,3.0,2000000.0,1414368,2109399,国际事务，教育，科学研究，文化,0.0,北京,"26,27,10,13",1
86,22300000.0,2924,北京中艺艺术基金会,39.915839,北京市朝阳区,116.447998,1.0,1640000,19,16,0.0,0.0,4000000.0,3800000,21089002,教育，文化，艺术,0.0,北京,"27,13,14",1
87,21400820.9,3023,北京新阳光慈善基金会,39.938607,北京市海淀区,116.289006,7.0,2320000,116,62,3.0,636.0,4000000.0,9845117,3398640,卫生保健，医疗救助，志愿服务,,北京,"11,15,18",1
88,4374000.0,3052,北京华亚艺术基金会,39.95138,北京市海淀区,116.309771,3.0,440000,12,13,0.0,0.0,2000000.0,1750000,3428243,教育，文化，艺术,0.0,北京,"27,13,14",1
89,8896708.2,3115,北京友好传承文化基金会,39.906733,北京市海淀区,116.294594,2.0,121000,13,7,10.0,1.0,2000000.0,1685600,2048227,环境，教育，青少年，文化，艺术,1320800.0,北京,"17,27,1,13,14",1
90,3486200.0,3142,北京市企业家环保基金会,40.02546,北京市朝阳区,116.47889,26.0,1050000,61,28,0.0,0.0,8000000.0,48799380,85643210,公益事业发展，环境，科学研究,,北京,"28,17,10",1
91,1100000.0,6943,杭州市送温暖工程基金会,30.259696,浙江省杭州市上城区,120.175078,0.0,132000,1,4,0.0,0.0,4000000.0,1401400,3858851,扶贫助困，教育，医疗救助,15000000.0,浙江,"19,27,15",11
92,2020000.0,3255,北京协和医学基金会,39.918338,北京市东城区,116.418889,1.0,233000,17,27,15.0,0.0,5000000.0,2367450,758464,教育，科学研究，卫生保健，医疗救助,0.0,北京,"27,10,11,15",1
93,25180000.0,2797,浙江正泰公益基金会,30.284499,浙江省杭州市西湖区,120.173576,3.0,9610,13,11,0.0,0.0,20000000.0,0,28205000,安全救灾，创业就业，扶贫助困,0.0,浙江,"24,25,19",11
94,6250234.44,3393,北京万通公益基金会,39.925384,北京市朝阳区,116.463781,4.0,1690000,77,48,0.0,300.0,2000000.0,2968346,1550895,扶贫助困，环境，教育,0.0,北京,"19,17,27",1
95,5180600.0,10233,浙江省老年事业发展基金会,30.268759,浙江省杭州市西湖区,120.158437,3.0,186000,5,16,0.0,0.0,4000000.0,4895600,9182180,公共服务，老年人,500000.0,浙江,"20,22",11
96,48062000.0,2952,浙江省娃哈哈慈善基金会,30.253278,浙江省杭州市上城区,120.189587,0.0,10300,1,11,1.0,10.0,10000000.0,46520000,46520000,扶贫助困，教育,0.0,浙江,"19,27",11
97,4500000.0,2952,浙江永强慈善基金会,28.880888,浙江省台州市临海市,121.208741,0.0,139000,1,4,0.0,25.0,2000000.0,1000000,318900,扶贫助困，教育,0.0,浙江,"19,27",11
98,3580000.0,10462,杭州市老龄事业发展基金会,30.230413,浙江省杭州市上城区,120.177807,0.0,35300,5,12,0.0,0.0,5000000.0,1000000,4775460,公共服务，老年人,680000.0,浙江,"20,22",11
99,782300.0,3026,桐庐县老龄事业发展基金会,29.79668,浙江省杭州市桐庐县,119.701125,1.0,20600,1,7,0.0,0.0,4000000.0,630884,817281,公共服务，老年人,95000.0,浙江,"20,22",11
100,7179650.4,3546,北京水源保护基金会,39.926018,北京市朝阳区,116.467168,4.0,266000,25,21,0.0,50.0,5000000.0,185970,0,环境，科学研究，社区发展,,北京,"17,10,5",1
101,2766224.0,3713,福建海西青年创业基金会,26.092226,福建省福州市鼓楼区,119.312547,2.0,375000,18,17,0.0,1700.0,2000000.0,8080924,12216176,创业就业,0.0,福建,25,13
102,28683874.28,8725,福建集美大学教育发展基金会,24.584242,福建省厦门市集美区,118.100145,2.0,34200,4,13,0.0,100.0,4000000.0,2475000,2085000,教育，科学研究,0.0,福建,"27,10",13
103,12016284.0,4048,福建农林大学教育发展基金会,26.090801,福建省福州市仓山区,119.245098,2.0,61700,1,16,0.0,88.0,2000000.0,4476984,3527384,教育，科学研究,0.0,福建,"27,10",13
104,15000000.0,3903,北京市鸿儒金融教育基金会,39.998988,北京市海淀区,116.342035,4.0,15000,3,30,13.0,0.0,2000000.0,11709130,21280931,教育，科学研究,0.0,北京,"27,10",1
105,4062001.61,3932,北京市仁爱慈善基金会,39.894197,北京市丰台区,116.323091,1.0,69500,101,29,0.0,8000.0,2000000.0,6437857,6528749,安全救灾，教育，老年人，青少年，文化，心理健康,3244000.0,北京,"24,27,22,1,13,9",1
106,0.0,4689,福建省黄仲咸教育基金会,24.496074,福建省厦门市湖里区,118.136684,19.0,14600,6,9,0.0,0.0,8477700.0,0,16695370,教育，卫生保健，文化,0.0,福建,"27,11,13",13
107,41490000.0,1909,北京科技大学教育发展基金会,39.995129,北京市海淀区,116.361716,4.0,956000,27,16,0.0,15.0,20000000.0,35706298,20104222,教育，科学研究,0.0,北京,"27,10",1
108,28887364.88,4084,北京市西部阳光农村发展基金会,39.963274,北京市海淀区,116.360118,12.0,190000,87,43,0.0,1500.0,3000000.0,10365417,250000,扶贫助困，教育，三农，志愿服务,8748718.74,北京,"19,27,16,18",1
109,60000.0,3891,福建省潘振东教育基金会,26.100391,福建省福州市鼓楼区,119.313273,2.0,38900,3,17,0.0,0.0,6000000.0,0,5000000,教育,0.0,福建,27,13
110,12333113.0,4171,北京市希望公益基金会,39.865071,北京市丰台区,116.431925,8.0,1520000,28,11,2.0,2.0,4000000.0,4202303,3711062,教育，青少年，文化,20500000.0,北京,"27,1,13",1
111,114700000.0,4903,福建省石竹慈善基金会,26.084161,福建省福州市,119.314723,8.0,18300,7,3,0.0,35.0,2100000.0,14834100,15738000,安全救灾，儿童，扶贫助困，教育,0.0,福建,"24,6,19,27",13
112,28750000.0,3365,福州大学教育发展基金会,26.079858,福建省福州市鼓楼区,119.280121,5.0,227000,5,13,0.0,0.0,2000000.0,18934200,42019210,教育，科学研究,0.0,福建,"27,10",13
113,9531335.0,7521,北京文化发展基金会,39.906742,北京市西城区,116.368826,25.0,896000,233,47,14.0,0.0,5000000.0,6800000,7254211,文化,1014035.0,北京,13,1
114,1640000.0,7938,林则徐基金会,26.100264,福建省福州市鼓楼区,119.30745,6.0,92500,60,7,0.0,5.0,2600000.0,4371246,2667458,教育，文化,0.0,福建,"27,13",13
115,11453250.4,4350,北京市美疆助学基金会,39.921517,北京市西城区,116.373409,5.0,169000,53,19,0.0,10.0,4600000.0,7502709,10815700,教育,0.0,北京,27,1
116,6050000.0,8941,厦门中山医院基金会,24.477613,福建省厦门市思明区,118.104245,5.0,216000,0,12,0.0,26.0,2000000.0,4610000,2535300,卫生保健，医疗救助,200000.0,福建,"11,15",13
117,8386585.28,4498,北京光华慈善基金会,39.915298,北京市东城区,116.43678,1.0,215000,247,19,0.0,10.0,2000000.0,2242000,873875,安全救灾，创业就业，教育,0.0,北京,"24,25,27",1
118,136000000.0,4503,北京市搜候中国城市文化基金会,39.913187,北京市朝阳区,116.48146,0.0,241000,17,10,0.0,0.0,2000000.0,1000000,17089160,环境，社区发展，艺术,0.0,北京,"17,5,14",1
119,97538437.64,4618,北京市中国人民大学教育基金会,39.97641,北京市海淀区,116.318381,14.0,1700000,20,36,0.0,30.0,2000000.0,47712408,147883198,教育，科学研究,3504220.0,北京,"27,10",1
120,7800000.0,8861,福建省扶贫基金会,26.103601,福建省福州市鼓楼区,119.305099,7.0,435000,32,13,0.0,2.0,4000000.0,10640000,16882894,扶贫助困,0.0,福建,19,13
121,4758694.0,6489,福建省发展体育事业基金会,26.101363,福建省福州市鼓楼区,119.312629,3.0,278000,1,15,0.0,0.0,4000000.0,5440556,6091203,教育，体育,0.0,福建,"27,2",13
122,10374480.0,13117,福建省妇女儿童发展基金会,26.107646,福建省福州市晋安区,119.310173,3.0,208000,28,12,0.0,12.0,8000000.0,7919990,14099686,儿童，妇女，教育,0.0,福建,"6,7,27",13
123,21131200.0,3112,闽都中小银行教育发展基金会,24.458792,福建省厦门市思明区,118.082209,0.0,44900,4,36,0.0,5.0,18000000.0,0,12660700,教育，科学研究,0.0,福建,"27,10",13
124,930000.0,9485,福建省龙岩扶贫基金会,25.106702,福建省三明市永安市,117.042741,4.0,286000,2,12,0.0,0.0,4000000.0,0,3100000,扶贫助困,520000.0,福建,19,13
125,10000000.0,8970,上海工商界爱国建设特种基金会,31.194567,上海市徐汇区,121.453929,2.0,30900,6,34,0.0,5.0,100000000.0,0,9636300,教育，老年人,0.0,上海,"27,22",3
126,24178000.0,6640,上海唐君远教育基金会,31.225772,上海市徐汇区,121.462153,0.0,15100,55,42,0.0,134.0,40000000.0,35386840,47235993,教育,0.0,上海,27,3
127,3000000.0,7671,北京市戏曲艺术发展基金会,39.915411,北京市朝阳区,116.436813,2.0,108000,16,16,0.0,0.0,2000000.0,2350000,200000,艺术,400000.0,北京,14,1
128,100000000.0,6013,上海联和新泰战略研究与发展基金会,31.216335,上海市徐汇区,121.444786,1.0,546000,1,7,0.0,0.0,3000000.0,0,17490000,科学研究,0.0,上海,10,3
129,13608736.93,7833,北京绿化基金会,39.976611,北京市西城区,116.394911,3.0,723000,46,15,0.0,200.0,4000000.0,9464104,6985499,国际事务，环境,0.0,北京,"26,17",1
130,237688800.74,4568,上海交通大学教育发展基金会,31.204998,上海市闵行区,121.442907,0.0,646000,24,6,0.0,15.0,10000000.0,0,0,国际事务，教育,1472000.0,上海,"26,27",3
131,3504801.43,8324,北京工业大学教育基金会,39.877745,北京市朝阳区,116.484889,3.0,1020000,19,21,8.0,50.0,2000000.0,573158,904596,教育，科学研究,0.0,北京,"27,10",1
132,26120856.0,8492,北京青少年发展基金会,39.941393,北京市西城区,116.366114,13.0,1110000,533,33,2.0,26.0,4000000.0,5983498,41091573,创业就业，公共安全，教育，青少年,0.0,北京,"25,4,27,1",1
133,1721000.0,3853,上海市防癌抗癌事业发展基金会,31.196521,上海市徐汇区,121.459388,2.0,90700,2,3,0.0,0.0,2000000.0,1071000,1300000,教育，科学研究，医疗救助,0.0,上海,"27,10,15",3
134,667300.0,3758,上海能近公益基金会,31.192489,上海市徐汇区,121.448544,1.0,625000,11,11,0.0,0.0,2250000.0,2478090,1251537,安全救灾，儿童，教育，科学研究，青少年，医疗救助,0.0,上海,"24,6,27,10,1,15",3
135,6362689.8,3287,上海特殊关爱基金会,31.216317,上海市长宁区,121.440131,3.0,186000,32,69,0.0,0.0,2440000.0,3132700,7021691,残疾，儿童，教育，医疗救助,0.0,上海,"23,6,27,15",3
136,0.0,9024,北京节能与电力技术开发基金会,39.913733,北京市西城区,116.355365,0.0,329000,5,11,0.0,9.0,4000000.0,0,451300,环境，科学研究,0.0,北京,"17,10",1
137,4711993.49,3349,上海夏征农民族文化教育发展基金会,31.210798,上海市普陀区,121.43774,3.0,6770,11,28,0.0,7.0,2000000.0,7094240,6886179,教育，文化,0.0,上海,"27,13",3
138,15806154.04,9130,北京妇女儿童发展基金会,39.88933,北京市朝阳区,116.46511,9.0,843000,173,23,0.0,100.0,4180000.0,21565602,7216320,创业就业，儿童，妇女，青少年，医疗救助,4453341.76,北京,"25,6,7,1,15",1
139,35257450.91,2783,上海联劝公益基金会,31.215908,上海市黄浦区,121.502011,15.0,245000,62,36,32.0,470.0,4000000.0,30494346,24047329,儿童，扶贫助困，公益事业发展，环境，教育，医疗救助,6840634.43,上海,"6,19,28,17,27,15",3
140,19433310.05,2670,北京市长江科技扶贫基金会,40.047612,北京市海淀区,116.360961,7.0,293000,35,38,7.0,60.0,2000000.0,6411897,10766825,扶贫助困，教育，三农,0.0,北京,"19,27,16",1
141,13632000.0,2922,上海民建扶帮公益基金会,31.232244,上海市黄浦区,121.462787,0.0,230000,61,35,0.0,8.0,2000000.0,11209130,13030475,扶贫助困，公共服务，教育，老年人,0.0,上海,"19,20,27,22",3
142,6334321.55,2748,北京世纪慈善基金会,39.898754,北京市崇文区,116.43535,4.0,1210000,26,98,15.0,15.0,4100000.0,7380022,9886256,法律实施，扶贫助困，教育，社区发展，卫生保健，医疗救助,0.0,北京,"12,19,27,5,11,15",1
143,2022000.0,2797,北京工商大学教育基金会,39.932298,北京市海淀区,116.321576,4.0,1090000,16,65,0.0,15.0,2000000.0,3074334,4194615,教育，科学研究,100000.0,北京,"27,10",1
144,8634700.0,8151,上海市拥军优属基金会,31.220068,上海市徐汇区,121.445847,27.0,22400,2,49,0.0,0.0,260000000.0,10069680,54858661,公共安全,187850.0,上海,4,3
145,58613488.4,8636,上海宋庆龄基金会,31.235442,上海市静安区,121.459918,12.0,503000,385,119,0.0,100.0,4000000.0,50929579,59577228,儿童，妇女，教育，青少年，卫生保健，医疗救助,0.0,上海,"6,7,27,1,11,15",3
146,22928924.82,4094,上海市华侨事业发展基金会,31.218286,上海市徐汇区,121.445258,6.0,122000,8,38,15.0,0.0,10000000.0,16907055,12912733,侨务,2326041.13,上海,21,3
147,14470100.0,9042,上海市儿童基金会,31.203323,上海市徐汇区,121.446093,9.0,1120000,40,7,3.0,13.0,4000000.0,3587200,6090404,儿童,243500.0,上海,6,3
148,51511599.96,9121,上海市青少年发展基金会,31.227347,上海市卢湾区,121.464543,1.0,535000,38,69,0.0,0.0,5000000.0,39537596,33800672,创业就业，教育，青少年，卫生保健，文化,0.0,上海,"25,27,1,11,13",3
149,36410000.0,9173,上海交响乐团文化发展基金会,31.214695,上海市徐汇区,121.448095,2.0,160000,0,13,0.0,0.0,4000000.0,0,14224180,艺术,1000000.0,上海,14,3
150,327463069.22,11792,爱德基金会,32.059601,江苏省南京市鼓楼区,118.784447,75.0,1080000,846,23,,,25000000.0,647320700,131183200,残疾，儿童，公益事业发展，国际事务，教育，三农，卫生保健，医疗救助,,江苏,"23,6,28,26,27,16,11,15",10
151,1500000.0,4291,江苏长江平民教育基金会,31.321659,江苏省苏州市吴中区,120.830034,1.0,29600,6,21,0.0,500.0,2000000.0,2129200,2298710,教育,0.0,江苏,27,10
152,0.0,3196,常熟理工学院教育发展基金会,31.619243,江苏省苏州市常熟市,120.743029,1.0,26600,2,9,0.0,0.0,5000000.0,1155000,451247,教育，科学研究,0.0,江苏,"27,10",10
153,1583007.41,3302,常州工程职业技术学院教育发展基金会,31.694047,江苏省常州市武进区,119.956192,0.0,104000,1,6,0.0,0.0,4000000.0,250000,3499000,教育,60000.0,江苏,27,10
154,17542500.0,3137,河北省红十字基金会,38.035692,河北省石家庄市桥东区,114.508725,15.0,868000,31,13,2.0,30.0,4000000.0,17445100,19361400,安全救灾，医疗救助,0.0,河北,"24,15",5
155,11598345.0,2717,江苏昌明教育基金会,31.263283,上海市虹口区,121.505559,1.0,15300,25,31,1.0,50.0,2000000.0,8504597,6890594,教育,555860.0,上海,27,3
156,0.0,3171,江苏海澜教育发展基金会,31.815554,江苏省无锡市江阴市,120.512396,6.0,37000,2,15,0.0,30.0,100000000.0,0,15625000,教育,0.0,江苏,27,10
157,0.0,2990,江苏宏大青少年人才发展基金会,34.092317,江苏省盐城市滨海县,120.026609,0.0,10300,0,7,0.0,0.0,10000000.0,0,1428300,教育，青少年,0.0,江苏,"27,1",10
158,91651.5,3302,江苏华夏慈善基金会,32.06518,江苏省南京市玄武区,118.817726,,397000,0,2,,,2000000.0,0,180000,扶贫助困，公益事业发展,0.0,江苏,"19,28",10
159,0.0,2743,山西省创业就业基金会,37.853341,山西省太原市迎泽区,112.558249,14.0,389000,3,3,0.0,0.0,4000000.0,0,3783332,创业就业,0.0,山西,25,6
160,15870500.0,11960,江苏省儿童少年福利基金会,32.041708,江苏省南京市建邺区,118.763785,7.0,102000,209,17,0.0,114.0,14000000.0,4089421,5043533,残疾，儿童，教育,9956000.0,江苏,"23,6,27",10
161,6500000.0,8928,江苏省扶贫基金会,32.063128,江苏省南京市鼓楼区,118.746881,21.0,418000,1,10,0.0,0.0,5000000.0,0,107808197,扶贫助困,900000.0,江苏,19,10
162,24414442.63,8530,江苏省青少年发展基金会,32.066979,江苏省南京市鼓楼区,118.767342,5.0,356000,47,17,0.0,0.0,4050000.0,24695338,26481919,教育，青少年,1716561.5,江苏,"27,1",10
163,4809029.3,3801,天津市鹤童老年公益基金会,39.080039,天津市西青区,117.084321,1.0,24000,10,19,0.0,400.0,2000000.0,3117087,2303068,安全救灾，残疾，公共服务，教育，老年人,190680.0,天津,"24,23,20,27,22",2
164,19835815.52,4017,天津中国民航大学教育发展基金会,39.119651,天津市东丽区,117.358626,0.0,65400,2,8,0.0,3.0,8000000.0,0,5734150,教育，科学研究,300000.0,天津,"27,10",2
165,544839.0,3594,天津市宏志教育基金会,39.080651,天津市河西区,117.237632,1.0,11700,3,15,0.0,0.0,2000000.0,0,1118200,教育,0.0,天津,27,2
166,568000.0,3322,天津市滨海社会救助基金会,,天津市滨海新区,,2.0,40900,2,11,0.0,3.0,2000000.0,410000,1015460,扶贫助困，教育,0.0,天津,"19,27",2
167,16062515.92,4634,天津市妇女儿童发展基金会,39.126613,天津市和平区,117.221384,7.0,157000,26,14,2.0,5.0,4000000.0,10915120,6915140,安全救灾，儿童，妇女，教育,1530000.0,天津,"24,6,7,27",2
168,981257908.97,3959,江苏陶欣伯助学基金会,32.048721,江苏省南京市秦淮区,118.789153,9.0,70900,95,9,0.0,0.0,200000000.0,281742000,56860700,教育,0.0,江苏,27,10
169,1550000.0,7516,天津市人口福利基金会,39.124034,天津市和平区,117.217661,3.0,172000,3,3,0.0,0.0,4000000.0,1550000,2794500,儿童，妇女，医疗救助,0.0,天津,"6,7,15",2
170,3685000.0,3134,刘天华阿炳中国民族音乐基金会,32.012524,江苏省南京市建邺区,118.747636,0.0,3310,1,19,0.0,0.0,10000000.0,3685000,5945320,文化，艺术,0.0,江苏,"13,14",10
171,23802029.56,4475,南京大学教育发展基金会,32.120846,江苏省南京市,118.960828,26.0,1320000,42,9,0.0,20.0,50000000.0,650220,31200000,教育，科学研究,320000.0,江苏,"27,10",10
172,11793537.0,3794,南京工业大学教育发展基金会,32.083569,江苏省南京市浦口区,118.649074,4.0,444000,1,29,0.0,15.0,4000000.0,74389279,92112357,教育,100000.0,江苏,27,10
173,1969035.0,4207,南京金鹰国际慈济基金会,32.047392,江苏省南京市鼓楼区,118.786682,3.0,2780000,0,19,10000000.0,8.0,10000000.0,1610000,4555475,残疾，儿童，扶贫助困，教育，青少年,0.0,江苏,"23,6,19,27,1",10
174,5537452.0,4967,包头市扶贫基金会,40.658057,内蒙古自治区包头市昆都仑区,109.806834,3.0,90300,1,16,2000000.0,0.0,2000000.0,3367550,4343961,扶贫助困,107452.0,内蒙古,19,28
175,467096.0,4842,科左后旗扶贫助学基金会,43.196083,内蒙古自治区通辽市科尔沁左翼后旗,122.697345,2.0,31800,2,3,0.0,0.0,2000000.0,1198407,1215295,扶贫助困，教育,119107.0,内蒙古,"19,27",28
176,1613466706.31,4598,老牛基金会,40.821347,内蒙古自治区呼和浩特市,111.762813,29.0,1060000,221,108,0.0,16.0,2000000.0,0,500300399,安全救灾，公益事业发展，环境，教育，文化,0.0,内蒙古,"24,28,17,27,13",28
177,6400000.0,8910,南京市中小学幼儿教师奖励基金会,32.063591,江苏省南京市玄武区,118.806898,0.0,87200,1,18,0.0,0.0,2000000.0,450000,4528534,教育,100000.0,江苏,27,10
178,1220000.0,4301,南京信息大学教育发展基金会,32.210998,江苏省南京市浦口区,118.733478,,88100,1,6,,,8250000.0,191000,85562900,教育，科学研究,100000.0,江苏,"27,10",10
179,412868.0,3267,南通市爱心帮困基金会,31.97766,江苏省南通市崇川区,120.905644,2.0,50600,0,15,0.0,0.0,2000000.0,190000,7438131,教育，青少年，医疗救助,0.0,江苏,"27,1,15",10
180,904410.0,2891,内蒙古民族青年文化艺术基金会,40.819708,内蒙古自治区呼和浩特市赛罕区,111.782282,0.0,111000,6,7,0.0,8.0,2000000.0,904410,705526,少数民族，文化，艺术,0.0,内蒙古,"3,13,14",28
181,4060000.0,2777,内蒙古青年创业就业基金会,40.848662,内蒙古自治区呼和浩特市赛罕区,111.781995,0.0,146000,0,7,0.0,0.0,4000000.0,4060000,2740399,创业就业,0.0,内蒙古,25,28
182,25553384.28,2831,内蒙古云曙碧公益事业基金会,40.78244,内蒙古自治区呼和浩特市玉泉区,111.665154,2.0,5120,2,13,0.0,2.0,10000000.0,17571450,6865598,教育，社区发展,0.0,内蒙古,"27,5",28
183,968000.0,11277,内蒙古自治区儿童基金会,40.826063,内蒙古自治区呼和浩特市赛罕区,111.681095,,246000,0,4,,,4000000.0,968000,242380,儿童,68000.0,内蒙古,6,28
184,27285063.18,4595,无锡灵山慈善基金会,31.426482,江苏省无锡市宜兴市,120.109424,23.0,21000,23,24,0.0,10000.0,4000000.0,55690000,42177447,安全救灾，教育,,江苏,"24,27",10
185,200000.0,3731,盐城市扶贫基金会,33.354715,江苏省盐城市亭湖区,120.168578,6.0,62200,0,2,0.0,0.0,2000000.0,200000,205100,扶贫助困,0.0,江苏,19,10
186,280000.0,3356,张家港市农联爱心基金会,31.942013,江苏省苏州市张家港市,120.617108,0.0,8810,0,5,0.0,7.0,2000000.0,324000,634775,扶贫助困，教育，老年人,0.0,江苏,"19,27,22",10
187,2600000.0,2896,江苏宏德文化出版基金会,32.063316,江苏省南京市,118.78371,0.0,77800,18,22,0.0,10.0,2000000.0,0,2531472,文化,0.0,江苏,13,10
188,1855000.0,2839,江苏七彩凤凰母语发展基金会,32.083259,江苏省南京市鼓楼区,118.75434,2.0,8570,3,5,0.0,0.0,2000000.0,0,331697,教育，文化,0.0,江苏,"27,13",10
189,6860000.0,2863,江苏沙钢公益基金会,31.964945,江苏省苏州市张家港市,120.639683,0.0,7020,0,12,0.0,0.0,12000000.0,0,8403295,残疾，扶贫助困，教育,0.0,江苏,"23,19,27",10
190,6102020.0,2925,江苏省关心下一代基金会,32.069602,江苏省南京市鼓楼区,118.762971,0.0,135000,2,18,0.0,0.0,2000000.0,0,9468777,儿童，青少年,0.0,江苏,"6,1",10
191,21000000.0,2869,江苏中大公益基金会,31.391948,江苏省苏州市昆山市,120.975642,4.0,1200000,2,7,0.0,5.0,38200000.0,0,1450000,教育，老年人,0.0,江苏,"27,22",10
192,4100000.0,2896,南京新城市慈善基金会,32.055712,江苏省南京市鼓楼区,118.778071,0.0,467000,0,12,0.0,0.0,2000000.0,1367890,5033120,教育,0.0,江苏,27,10
193,2209850.0,2898,扬州市翔宇妇女儿童基金会,32.403129,江苏省扬州市维扬区,119.462562,1.0,5520,0,8,0.0,0.0,2000000.0,2307441,1830002,创业就业，儿童，妇女，教育，医疗救助,315000.0,江苏,"25,6,7,27,15",10
194,4324974.0,11403,黑龙江省妇女儿童基金会,45.767486,黑龙江省哈尔滨市南岗区,126.654717,8.0,113000,39,5,0.0,158.0,2860000.0,636100,5562279,残疾，儿童，扶贫助困，妇女，教育,2970810.0,黑龙江,"23,6,19,7,27",9
195,22829138.7,4462,南航“十分”关爱基金会,23.137434,广东省广州市天河区,113.306925,8.0,10700,41,39,0.0,98.0,20000000.0,2,14890824,安全救灾，教育,0.0,广东,"24,27",19
196,848000000.0,3688,腾讯公益慈善基金会,22.546099,广东省深圳市南山区,113.941088,13.0,671000,649,21,0.0,15.0,20000000.0,8301000,21934905,安全救灾，扶贫助困，公益事业发展，环境，教育，医疗救助，志愿服务,0.0,广东,"24,19,28,17,27,15,18",19
197,113965894.86,3252,万科公益基金会,22.602482,广东省深圳市盐田区,114.309545,6.0,486000,181,67,0.0,2156.0,50000000.0,27209276,52615738,安全救灾，公共安全，环境，社区发展，心理健康，医疗救助,0.0,广东,"24,4,17,5,9,15",19
198,0.0,2931,广西荣和爱心基金会,22.818825,广西壮族自治区南宁市兴宁区,108.40771,4.0,120000,1,7,0.0,0.0,3000000.0,0,1238800,扶贫助困，教育，医疗救助,0.0,广西,"19,27,15",29
199,1706000.0,3321,广西桂嘉汇青少年儿童救助基金会,22.867451,广西壮族自治区南宁市兴宁区,108.376873,1.0,9850,1,12,0.0,0.0,2000000.0,0,2970000,儿童，青少年,0.0,广西,"6,1",29
200,3185000.0,4266,黑龙江省华侨经济文化基金会,45.74294,黑龙江省哈尔滨市香坊区,126.676822,1.0,52500,0,9,0.0,14.0,4000000.0,3853000,2636000,侨务，社区发展，文化,1250000.0,黑龙江,"21,5,13",9
201,7102482.14,3979,广西李宁基金会,22.803617,广西壮族自治区南宁市青秀区,108.417959,7.0,473000,11,11,0.0,0.0,2000000.0,2105000,2105000,教育，体育,0.0,广西,"27,2",29
202,20000.0,3902,广西国海扶贫助学基金会,22.820796,广西壮族自治区南宁市兴宁区,108.370306,2.0,317000,10,5,0.0,8.0,2100000.0,0,642500,扶贫助困，教育,0.0,广西,"19,27",29
203,5648605.66,10897,哈尔滨市老年基金会,45.754887,黑龙江省哈尔滨市南岗区,126.696608,4.0,216000,0,5,0.0,20.0,4000000.0,5719314,7693088,公共服务，老年人,0.0,黑龙江,"20,22",9
204,3959747.34,8141,广西壮族自治区扶贫基金会,22.819938,广西壮族自治区南宁市兴宁区,108.35939,8.0,147000,0,9,0.0,0.0,9800000.0,4522715,5597710,扶贫助困,2100000.0,广西,19,29
205,20084542.0,12876,广西妇女儿童发展基金会,22.814224,广西壮族自治区南宁市兴宁区,108.371912,4.0,274000,4,21,0.0,0.0,4100000.0,22213602,20324600,安全救灾，儿童，教育，青少年,12460682.0,广西,"24,6,27,1",29
206,3350000.0,9097,海南改革发展研究基金会,20.071385,海南省海口市美兰区,110.344319,,1230000,7,7,,,4000000.0,0,5800000,科学研究，社区发展,0.0,海南,"10,5",20
207,650000.0,3584,海南省李惠智教育基金会,20.03851,海南省海口市,110.327465,3.0,5670,8,11,0.0,7.0,2000000.0,127920,591660,教育,0.0,海南,27,20
208,8548680.06,3949,辽宁爱之光防盲基金会,41.887891,辽宁省沈阳市皇姑区,123.422144,7.0,35700,28,17,3.0,200.0,2000000.0,3623215,2285000,卫生保健，医疗救助,0.0,辽宁,"11,15",7
209,119232438.0,4639,广东省中山大学教育发展基金会,23.105098,广东省广州市海珠区,113.306355,23.0,644000,7,19,0.0,0.0,4000000.0,33336100,34339920,教育，科学研究,15323981.82,广东,"27,10",19
210,9695220.77,3968,沈阳市职工爱心慈善基金会,41.810696,辽宁省沈阳市沈河区,123.448346,1.0,27700,7,14,0.0,8000.0,4000000.0,11294136,11294136,残疾，扶贫助困，公共服务，教育，老年人，医疗救助,0.0,辽宁,"23,19,20,27,22,15",7
211,810080000.0,8578,广东省扶贫基金会,23.125815,广东省广州市越秀区,113.308062,17.0,440000,62,17,0.0,0.0,22110000.0,685278450,560505422,安全救灾，扶贫助困，卫生保健，医疗救助,,广东,"24,19,11,15",19
212,7056231.0,10647,深圳市青少年发展基金会,22.55501,广东省深圳市福田区,114.109227,6.0,492000,41,25,23.0,200.0,9950000.0,1350000,17685849,教育，青少年,0.0,广东,"27,1",19
213,17000000.0,8427,广州市青少年发展基金会,23.139278,广东省广州市越秀区,113.287833,9.0,320000,60,12,12.0,13.0,4000000.0,31866549,25823983,教育，青少年，医疗救助,0.0,广东,"27,1,15",19
214,4560000.0,4438,辽宁省妇女儿童基金会,41.784424,辽宁省沈阳市和平区,123.414558,0.0,116000,0,11,1.0,3.0,4000000.0,2007000,2007000,儿童，扶贫助困，妇女，教育,4360000.0,辽宁,"6,19,7,27",7
215,892330.0,4298,广州市南山自然科学学术交流基金会,23.148517,广东省广州市越秀区,113.277998,2.0,15200,0,28,0.0,0.0,3000000.0,50000,4436315,科学研究,0.0,广东,10,19
216,3044000.0,3472,吉林师范大学助学基金会,43.160052,吉林省四平市铁西区,124.354101,7.0,112000,6,13,5.0,140.0,2000000.0,2460796,4324986,教育,184000.0,吉林,27,8
217,3606854.3,8239,广州市职工济难基金会,23.137896,广东省广州市越秀区,113.267134,11.0,385000,2,12,0.0,0.0,14500000.0,41330297,27937570,教育,400000.0,广东,27,19
218,97500000.0,8206,深圳市警察基金会,22.549072,广东省深圳市罗湖区,114.115258,5.0,889000,7,29,0.0,35.0,26400000.0,0,54770800,公共安全,1100000.0,广东,4,19
219,13808114.8,9170,广东省人口基金会,23.134577,广东省广州市越秀区,113.313611,0.0,786000,2,21,0.0,0.0,6000000.0,21970025,21970025,儿童，妇女，卫生保健,1000000.0,广东,"6,7,11",19
220,62400000.0,3638,广东省合生珠江教育发展基金会,23.105098,广东省广州市海珠区,113.306355,2.0,8220,2,15,0.0,0.0,4000000.0,47696686,47696686,教育,0.0,广东,27,19
221,7999804.0,5269,广东省环境保护基金会,23.130575,广东省广州市天河区,113.35696,7.0,937000,55,11,2.0,280.0,4000000.0,11264220,2131171,环境,500000.0,广东,17,19
222,120000.0,9283,广州市振兴粤剧基金会,23.122054,广东省广州市荔湾区,113.245677,2.0,21100,1,67,0.0,0.0,11710000.0,0,9004063,教育，文化，艺术,0.0,广东,"27,13,14",19
223,198304227.33,7409,吉林大学教育基金会,43.829319,吉林省长春市朝阳区,125.283777,8.0,801000,4,31,0.0,0.0,4000000.0,203851960,50213900,教育，科学研究,1318644.09,吉林,"27,10",8
224,12728500.0,4884,梅州市希望教育基金会,24.300996,广东省梅州市梅江区,116.133187,2.0,61400,0,15,0.0,0.0,2050000.0,12199500,12410318,教育,0.0,广东,27,19
225,41373532.18,9767,广东省教育基金会,23.133768,广东省广州市越秀区,113.273207,6.0,1350000,111,14,0.0,0.0,19520000.0,23544735,24121127,教育,1405000.0,广东,27,19
226,3950000.0,10771,陕西省老龄事业发展基金会,34.400726,陕西省西安市临潼区,109.136124,6.0,62300,9,38,0.0,0.0,28700000.0,9077520,15677037,公共服务，老年人,0.0,陕西,"20,22",24
227,0.0,8551,深圳市绿色基金会,22.565118,广东省深圳市福田区,114.091347,8.0,716000,4,8,0.0,0.0,5450000.0,8141840,22385826,环境,0.0,广东,17,19
228,1592200.0,9947,延安教科文发展基金会,36.62749,陕西省延安市宝塔区,109.469025,3.0,50900,0,7,0.0,4.0,4000000.0,276100,271100,教育，文化,0.0,陕西,"27,13",24
229,1520000.0,8154,陕西省西安市老龄事业发展基金会,34.354987,陕西省西安市未央区,108.950539,3.0,370000,0,17,0.0,0.0,7100000.0,2556000,7120600,公共服务，老年人,0.0,陕西,"20,22",24
230,1000000.0,8089,深圳市老龄事业发展基金会,22.563362,广东省深圳市罗湖区,114.111469,,75500,6,2,,,10000000.0,35100,35100,公共服务，老年人,0.0,广东,"20,22",19
231,6878600.0,3829,东莞市东莞理工学院教育发展基金会,22.910292,广东省东莞市,113.882618,1.0,82800,0,25,2.0,3.0,2000000.0,8691172,8696040,教育,0.0,广东,27,19
232,15215165.1,3700,广东省志愿者事业发展基金会,23.128516,广东省广州市越秀区,113.305063,2.0,801000,11,10,2.0,0.0,4000000.0,1050000,870000,志愿服务,2000000.0,广东,18,19
233,0.0,3679,深圳市综研软科学发展基金会,22.580928,广东省深圳市罗湖区,114.090742,1.0,35400,19,15,33000000.0,4.0,33000000.0,0,6105000,科学研究,0.0,广东,10,19
234,4531528.93,3972,陕西纯山教育基金会,34.232979,陕西省西安市雁塔区,108.889017,9.0,276000,62,15,0.0,158.0,2000000.0,399270,752883,公益事业发展，教育,,陕西,"28,27",24
235,4000000.0,3667,广州市禁毒基金会,23.124296,广东省广州市越秀区,113.287325,3.0,188000,2,6,0.0,0.0,8500000.0,0,2139000,公共安全，医疗救助,30000000.0,广东,"4,15",19
236,20000000.0,3650,广东省豪爵慈善基金会,22.616597,广东省江门市蓬江区,113.075646,0.0,190000,3,26,0.0,0.0,10000000.0,23600000,23600000,安全救灾，扶贫助困，卫生保健，医疗救助,0.0,广东,"24,19,11,15",19
237,67799671.0,3576,广东省华南理工大学教育发展基金会,23.155756,广东省广州市天河区,113.354414,15.0,144000,1,59,0.0,30.0,4000000.0,20222530,18235831,教育，科学研究,400000.0,广东,"27,10",19
238,26562671.02,3044,陕西省红十字基金会,34.274606,陕西省西安市莲湖区,108.944151,6.0,880000,49,7,0.0,20.0,5000000.0,859634,1188522,安全救灾，卫生保健，医疗救助,3315000.0,陕西,"24,11,15",24
239,22038012.71,2811,陕西妇女儿童发展基金会,34.230444,陕西省西安市雁塔区,108.968399,6.0,303000,34,54,2.0,352.0,4000000.0,25092843,20660021,创业就业，儿童，妇女，教育,8127482.0,陕西,"25,6,7,27",24
240,0.0,3498,广东省华美教育慈善基金会,23.203576,广东省广州市天河区,113.392443,0.0,14200,33,16,0.0,0.0,5000000.0,0,5915200,教育,0.0,广东,27,19
241,12970000.0,3148,青海省雪域仁济慈善基金会,36.613857,青海省西宁市,101.805316,6.0,29200,0,5,1000000.0,0.0,2000000.0,9894580,9894580,扶贫助困，教育，老年人，文化,2000000.0,青海,"19,27,22,13",26
242,16623400.0,3330,广东省东风日产阳光关爱基金会,23.385809,广东省广州市花都区,113.17591,,15200,2,5,,,5000000.0,0,14005800,安全救灾，扶贫助困，教育,0.0,广东,"24,19,27",19
243,3043909.64,3237,广东省利海绿色基金会,23.100316,广东省广州市海珠区,113.281497,,60300,9,6,,,2000000.0,2934860,2934860,环境，教育,0.0,广东,"17,27",19
244,0.0,3210,广东省绿景慈善基金会,22.52958,广东省深圳市福田区,114.04498,0.0,651000,2,5,0.0,3.0,2000000.0,230000,410000,扶贫助困，环境，教育,0.0,广东,"19,17,27",19
245,13718306.09,4459,宁夏煤炭职工扶贫济困基金会,38.489495,宁夏回族自治区银川市金凤区,106.228998,0.0,23200,0,6,1.0,0.0,4000000.0,6400429,10895600,扶贫助困,0.0,宁夏,19,31
246,120263188.0,7713,宁夏回族自治区扶贫基金会,38.476899,宁夏回族自治区银川市兴庆区,106.265095,5.0,127000,0,11,0.0,13.0,4000000.0,75367040,46085748,扶贫助困,70000000.0,宁夏,19,31
247,111366931.76,3282,新疆妇女儿童发展基金会,43.792935,新疆维吾尔自治区乌鲁木齐市天山区,87.635693,6.0,287000,48,39,10.0,10.0,4000000.0,53044300,54096984,安全救灾，儿童，妇女，教育，卫生保健,16342996.0,新疆,"24,6,7,27,11",32
248,26563100.0,3006,广东省妇女儿童基金会,23.133586,广东省广州市越秀区,113.310178,5.0,231000,62,32,6.0,0.0,4390000.0,16696869,20016155,儿童，扶贫助困，妇女，教育，卫生保健，医疗救助,4110000.0,广东,"6,19,7,27,11,15",19
249,2373100.0,4359,重庆孤残儿童援助基金会,29.435057,重庆市巴南区,106.543288,1.0,13700,1,10,0.0,20.0,4000000.0,2179129,3251710,残疾，儿童，教育，医疗救助,0.0,重庆,"23,6,27,15",4
250,5302045.13,2957,广东省消防救助基金会,23.151978,广东省广州市天河区,113.348691,1.0,128000,1,3,0.0,0.0,4000000.0,0,0,安全救灾，公共安全,0.0,广东,"24,4",19
251,23414706.54,2890,广东省千禾社区公益基金会,23.099123,广东省广州市海珠区,113.297465,7.0,169000,81,70,0.0,0.0,2000000.0,24086864,10940236,社区发展,,广东,5,19
252,1270000.0,3687,重庆市法律援助基金会,29.595336,重庆市渝北区,106.545003,6.0,110000,7,22,0.0,20.0,4000000.0,1802700,2939538,法律实施,350000.0,重庆,12,4
253,4131105.0,2890,深圳市博时慈善基金会,22.543087,广东省深圳市福田区,114.028946,0.0,72600,2,20,0.0,20.0,2000000.0,3585000,7554300,安全救灾，扶贫助困，教育,0.0,广东,"24,19,27",19
254,7569315.62,2866,广东省春桃慈善基金会,23.120595,广东省广州市越秀区,113.319362,1.0,15200,10,15,0.0,30.0,2000000.0,734900,1060670,教育,0.0,广东,27,19
255,0.0,2841,广东省卓越慈善基金会,23.104199,广东省广州市海珠区,113.380328,2.0,191000,2,20,0.0,0.0,2000000.0,0,2162200,扶贫助困，教育,0.0,广东,"19,27",19
256,3261033.4,3521,重庆浙商爱心基金会,29.55987,重庆市渝中区,106.581607,3.0,201000,45,14,0.0,1000.0,4200000.0,6078718,6425667,教育,,重庆,27,4
257,8095180.0,2785,广州市羊城志愿服务基金会,23.140891,广东省广州市越秀区,113.260118,,36800,2,9,,,2000000.0,4895180,4397444,公共安全，老年人，卫生保健，心理健康，志愿服务,200000.0,广东,"4,22,11,9,18",19
258,100000.0,2763,广东省惠民慈善基金会,23.082587,广东省惠州市惠城区,114.420634,2.0,498000,11,1,0.0,6.0,2000000.0,69000,30000,儿童，医疗救助，志愿服务,0.0,广东,"6,15,18",19
259,24145263.01,2659,广东省广东外语外贸大学教育发展基金会,23.209593,广东省广州市白云区,113.294512,3.0,50400,0,103,62.0,0.0,2000000.0,12956423,6207298,教育,4447311.19,广东,27,19
260,16644200.0,2992,重庆市妇女儿童基金会,29.606743,重庆市渝中区,106.490197,6.0,194000,6,17,0.0,31.0,4000000.0,21750101,19063429,儿童，法律实施，妇女，教育,1700000.0,重庆,"6,12,7,27",4
261,4816000.0,2884,重庆宣传文化发展基金会,29.565764,重庆市渝中区,106.554216,,4750000,16,17,,,4000000.0,3429550,1581790,文化,280000.0,重庆,13,4
262,10220000.0,3163,湖南省长郡未来基金会,28.190919,湖南省长沙市岳麓区,112.981688,2.0,69800,0,6,0.0,0.0,2000000.0,0,2352690,教育,0.0,湖南,27,18
263,171309900.0,3204,湖南省文化艺术基金会,28.260219,湖南省长沙市开福区,113.02473,11.0,636000,8,33,0.0,0.0,10000000.0,162426400,12504800,文化，艺术,0.0,湖南,"13,14",18
264,27955243.0,3258,湖南弘慧教育发展基金会,28.219725,湖南省长沙市,112.856217,11.0,33000,32,61,0.0,348.0,2000000.0,27050979,10228914,教育,0.0,湖南,27,18
265,3138000.0,3960,湖南省长沙理工大学教育基金会,28.07081,湖南省长沙市雨花区,113.018877,4.0,100000,0,15,0.0,20.0,2000000.0,1402000,1196000,教育,0.0,湖南,27,18
266,46000000.0,4624,湖南飞翔公益基金会,28.124822,湖南省长沙市雨花区,113.048204,0.0,65700,0,14,0.0,9.0,2000000.0,0,2650000,安全救灾，扶贫助困，教育,0.0,湖南,"24,19,27",18
267,153168.1,4695,湖南省中南林业科技大学教育基金会,28.138867,湖南省长沙市天心区,113.008143,1.0,82800,0,4,0.0,30.0,2000000.0,207457,1236698,教育，科学研究,45000.0,湖南,"27,10",18
268,5510000.0,7256,湖南省扶贫基金会,28.200003,湖南省长沙市芙蓉区,112.998578,7.0,619000,5,4,0.0,0.0,6600000.0,4902000,5553500,扶贫助困，三农,3610000.0,湖南,"19,16",18
269,69300003.0,9237,湖南省青少年发展基金会,28.116926,湖南省长沙市天心区,112.986224,11.0,521000,75,25,2.0,0.0,4000000.0,82168173,74193794,教育，青少年,,湖南,"27,1",18
270,1781730.0,9411,湖南省老龄事业发展基金会,28.224776,湖南省长沙市开福区,112.999143,2.0,84800,0,8,0.0,2.0,4000000.0,1761730,647485,公共服务，老年人,130000.0,湖南,"20,22",18
271,30240000.0,2938,湖南青年创业就业基金会,28.116926,湖南省长沙市天心区,112.986224,3.0,622000,4,8,1.0,2.0,4000000.0,29740000,14028495,创业就业,0.0,湖南,25,18
272,5012891.67,3001,湖南省妇女儿童发展基金会,28.206315,湖南省长沙市,113.006006,3.0,220000,10,21,0.0,100.0,4000000.0,5967742,7865743,儿童，扶贫助困，妇女，医疗救助,1073408.0,湖南,"6,19,7,15",18
273,7679640.91,3652,江西省革命老区爱心基金会,28.686989,江西省南昌市,115.91096,,26300,52,8,,,4000000.0,7196523,4333262,医疗救助,6579640.91,江西,15,14
274,294198535.4,8978,河南省宋庆龄基金会,34.782903,河南省郑州市金水区,113.748998,37.0,95700,81,15,9.0,0.0,4000000.0,129838609,2253557776,安全救灾，儿童，教育，青少年,0.0,河南,"24,6,27,1",16
275,5491841.23,2776,中南财经政法大学教育发展基金会,30.484565,湖北省武汉市,114.395092,2.0,93000,7,73,0.0,0.0,2000000.0,4317200,6871957,教育，科学研究,0.0,湖北,"27,10",17
276,5760952.63,3534,武汉大学马克昌法学基金会,30.53814,湖北省武汉市武昌区,114.37282,1.0,31300,6,36,0.0,0.0,2000000.0,39050000,1841917,法律实施，教育，科学研究,0.0,湖北,"12,27,10",17
277,4498350.0,2842,湖北省青年创业就业基金会,30.549071,湖北省武汉市武昌区,114.354965,,174000,4,8,,,4000000.0,2548000,3235514,创业就业,0.0,湖北,25,17
278,1667400.0,7957,湖北省体育基金会,30.55202,湖北省武汉市武昌区,114.341072,1.0,1230000,2,6,0.0,0.0,4000000.0,1687200,1173600,体育,0.0,湖北,2,17
279,0.0,3961,四川省国电大渡河爱心帮扶基金会,30.600734,四川省成都市武侯区,104.072435,7.0,3530,0,31,0.0,0.0,2000000.0,0,14707323,公共服务，教育,0.0,四川,"20,27",21
280,806431.1,11426,成都市老龄事业发展基金会,30.665983,四川省成都市青羊区,104.067378,3.0,44300,66,56,2.0,357.0,4000000.0,1010000,2417975,公共服务，老年人,0.0,四川,"20,22",21
281,72302256.0,2804,四川省青年创业就业基金会,30.669509,四川省成都市青羊区,104.066842,7.0,418000,1,9,1.0,0.0,4000000.0,72166816,40576244,创业就业,0.0,四川,25,21
282,32489000.0,2950,四川电子科技大学教育发展基金会,30.68195,四川省成都市成华区,104.107613,11.0,1030000,2,31,1.0,10.0,10000000.0,70139333,57973494,教育，科学研究,0.0,四川,"27,10",21
283,12406990.6,3713,云南省俊发教育扶贫基金会,25.06964,云南省昆明市盘龙区,102.729871,1.0,129000,4,9,0.0,6.0,2000000.0,224015,373415,扶贫助困，教育,0.0,云南,"19,27",23
284,68169193.43,3519,云南大益爱心基金会,25.02802,云南省昆明市官渡区,102.733028,6.0,323000,63,30,0.0,2009.0,5000000.0,1387724,6179001,教育，卫生保健，文化,100000.0,云南,"27,11,13",23
285,5473464.43,8188,云南民族文化发展基金会,25.000158,云南省昆明市西山区,102.68847,7.0,587000,13,16,0.0,3.0,4200000.0,1890600,6901906,文化,0.0,云南,13,23
286,32859399.76,10609,云南教育基金会,25.067845,云南省昆明市西山区,102.714921,9.0,995000,158,84,0.0,80.0,4000000.0,21107208,29327637,教育,0.0,云南,27,23
287,14128942.59,3486,云南省绿色环境发展基金会,25.054182,云南省昆明市五华区,102.693801,9.0,306000,29,64,0.0,20.0,4000000.0,11606519,12973343,环境,300000.0,云南,17,23
288,10067000.0,2791,云南省青年创业就业基金会,25.038779,云南省昆明市西山区,102.705064,7.0,191000,8,6,0.0,0.0,4000000.0,10088400,8509540,创业就业,0.0,云南,25,23
289,33050797.23,9038,云南省扶贫基金会,24.994963,云南省昆明市西山区,102.69481,8.0,451000,4,13,0.0,0.0,4000000.0,12873155,12714535,扶贫助困,10362956.54,云南,19,23
290,12669745.47,3057,贵州省春晖行动发展基金会,26.572364,贵州省贵阳市南明区,106.742181,10.0,10800,65,39,0.0,0.0,4000000.0,11064436,9737670,扶贫助困，三农，社区发展,0.0,贵州,"19,16,5",22
291,2882119.61,3547,贵州省贵阳市生态文明基金会,26.5716,贵州省贵阳市南明区,106.707006,4.0,72700,0,35,0.0,331.0,4000000.0,361500,2091172,环境,0.0,贵州,17,22
292,6574400.0,2917,贵州省青年创业就业基金会,26.572364,贵州省贵阳市南明区,106.742181,9.0,168000,3,18,1.0,0.0,4000000.0,1860000,7450013,创业就业,1380000.0,贵州,25,22
293,4964587.5,3633,贵州文化薪火乡村发展基金会,26.52348,贵州省贵阳市小河区,106.701882,6.0,62700,33,52,0.0,32.0,2000000.0,4693935,4588195,公共服务，教育，少数民族，文化,3911587.5,贵州,"20,27,3,13",22
294,7980000.0,3309,北京中国石油大学教育基金会,40.223993,北京市昌平区,116.253117,3.0,1260000,21,28,0.0,30.0,2000000.0,2991480,4327375,教育，科学研究,0.0,北京,"27,10",1
295,9416061.09,7950,中国经济改革研究基金会,39.968012,北京市海淀区,116.346382,,3070000,40,47,,,18500000.0,6389751,10905540,科学研究,0.0,北京,10,1
296,59970924.55,2605,北京康盟慈善基金会,39.924422,北京市朝阳区,116.45866,4.0,296000,25,14,0.0,15.0,2000000.0,21273750,0,残疾，儿童，教育，卫生保健，医疗救助,,北京,"23,6,27,11,15",1
297,20802990.0,10398,浙江省人民教育基金会,30.285996,浙江省杭州市下城区,120.169002,0.0,1040000,1,23,0.0,0.0,4000000.0,21787120,21787120,教育,1000000.0,浙江,27,11
298,24599655.02,4015,浙江省李书福资助教育基金会,30.214291,浙江省杭州市滨江区,120.224393,0.0,66800,2,13,0.0,0.0,2000000.0,3875000,4379301,教育,0.0,浙江,27,11
299,2565368.0,3941,浙江千手慈善基金会,29.862158,浙江省宁波市江东区,121.600807,4.0,362000,63,7,0.0,800.0,2000000.0,2530526,2345909,残疾，儿童，扶贫助困，教育，老年人，医疗救助,0.0,浙江,"23,6,19,27,22,15",11
300,198400.0,3316,绍兴市柯桥区中厦慈善基金会,,浙江省绍兴市柯桥区,,,41800,0,16,,,2000000.0,270120,1105220,安全救灾，扶贫助困，教育,0.0,浙江,"24,19,27",11
301,0.0,10104,杭州市余杭区老年基金会,30.43328,浙江省杭州市余杭区,120.303724,1.0,21800,0,11,0.0,0.0,4000000.0,585000,2315883,公共服务，老年人,85000.0,浙江,"20,22",11
302,3459917.61,3496,南通市老区扶贫基金会,32.015822,江苏省南通市崇川区,120.863491,10.0,3360,16,12,0.0,198.0,4000000.0,21086483,18001339,扶贫助困,0.0,江苏,19,10
303,18654645.12,2805,四川省志愿服务基金会,30.668926,四川省成都市青羊区,104.066391,3.0,639000,2,31,0.0,15.0,4000000.0,15559250,20148760,志愿服务,1800000.0,四川,18,21
304,85700000.0,3482,河南足球事业发展基金会,34.721845,河南省郑州市管城回族区,113.73983,16.0,347000,57,11,0.0,22.0,4000000.0,123600000,54119419,体育,0.0,河南,2,16
305,1623000.0,2997,芜湖市爱心助学基金会,31.335274,安徽省芜湖市镜湖区,118.373851,6.0,26700,0,4,0.0,0.0,4000000.0,1303000,1836471,教育,0.0,安徽,27,12
306,2013300.0,2741,安徽省青年创业就业基金会,31.864576,安徽省合肥市庐阳区,117.275692,2.0,226000,12,4,0.0,1.0,4000000.0,1352000,3348485,创业就业,0.0,安徽,25,12
307,238670000.0,2596,北京民生文化艺术基金会,39.994154,北京市朝阳区,116.499112,3.0,809000,12,11,0.0,3.0,2000000.0,239386300,279626300,文化，艺术,,北京,"13,14",1
308,16490493.15,2812,深圳市郑卫宁慈善基金会,22.565693,广东省深圳市福田区,114.060865,11.0,418000,54,44,0.0,50.0,2000000.0,5600000,6862501,残疾,3500000.0,广东,23,19
309,1030000.0,2589,海门文明村爱心基金会,31.989991,江苏省南通市海门市,121.237993,1.0,7500,0,7,2000000.0,0.0,2000000.0,992800,1037800,扶贫助困，公共服务，老年人,150000.0,江苏,"19,20,22",10
310,2956043.27,2547,北京利星行慈善基金会,40.004375,北京市朝阳区,116.488263,1.0,853000,15,27,0.0,0.0,10000000.0,1685590,3047820,教育,0.0,北京,27,1
311,720000.0,2617,广东省茂华慈善基金会,22.378182,广东省珠海市香洲区,113.613209,0.0,128000,60,17,0.0,10.0,2000000.0,601184,3691404,安全救灾，教育，医疗救助,0.0,广东,"24,27,15",19
312,10400000.0,2645,黄奕聪慈善基金会,31.214622,上海市长宁区,121.409562,4.0,28400,47,37,0.0,163.0,20000000.0,8970786,9706045,教育，青少年,0.0,上海,"27,1",3
313,4001000.0,2533,上海恩德公益基金会,31.252183,上海市嘉定区,121.296503,0.0,6850,0,10,0.0,15.0,2000000.0,0,1968503,公共服务,0.0,上海,20,3
314,198694176.0,2569,中国绿色碳汇基金会,39.961847,北京市东城区,116.432149,13.0,263000,223,93,0.0,582.0,50000000.0,227560955,136356925,环境,175831476.0,北京,17,1
315,6615000.0,2408,江苏省美德基金会,32.066979,江苏省南京市鼓楼区,118.767342,2.0,198000,0,8,0.0,0.0,46400000.0,100000,5084117,儿童，教育，青少年,0.0,江苏,"6,27,1",10
316,569850000.0,2505,上海民生艺术基金会,31.246512,上海市浦东新区,121.514772,3.0,746000,0,17,0.0,0.0,2000000.0,300000,231140900,艺术,0.0,上海,14,3
317,10476818.86,2569,比亚迪慈善基金会,22.684685,广东省深圳市龙岗区,114.366524,2.0,286000,30,44,0.0,60.0,20000000.0,1393805,14001965,安全救灾，扶贫助困，教育,0.0,广东,"24,19,27",19
318,194835.0,2470,张家港市七里庙村利民基金会,31.883827,江苏省苏州市张家港市,120.513326,0.0,5180,0,9,0.0,0.0,4000000.0,0,128900,社区发展,0.0,江苏,5,10
319,7318369.0,2517,北京中央民族大学教育基金会,39.954507,北京市海淀区,116.326894,1.0,865000,12,29,0.0,5.0,2000000.0,6592443,5587838,教育,108000.0,北京,27,1
320,75034827.21,2587,神华公益基金会,39.956556,北京市东城区,116.406191,8.0,179000,146,27,1.0,969.0,200000000.0,2000000,285649036,安全救灾，扶贫助困，环境，教育，科学研究，社区发展,0.0,北京,"24,19,17,27,10,5",1
321,0.0,2462,宁夏青年创业就业基金会,38.497101,宁夏回族自治区银川市金凤区,106.257348,1.0,85100,0,1,0.0,1.0,4000000.0,0,300000,创业就业,0.0,宁夏,25,31
322,1826336.3,2537,福建省侨联事业发展基金会,26.092044,福建省福州市鼓楼区,119.321245,3.0,21700,0,5,0.0,0.0,2000000.0,360000,948000,侨务,0.0,福建,21,13
323,0.0,2546,浙江省阳光教育基金会,30.212673,浙江省杭州市滨江区,120.225649,6.0,1440000,36,13,0.0,4.0,2000000.0,6501500,5762100,教育,144000.0,浙江,27,11
324,1225000.0,2581,建德市老龄事业发展基金会,29.486834,浙江省杭州市建德市,119.298552,2.0,23600,0,1,0.0,0.0,4040000.0,22000,22000,公共服务，老年人,100000.0,浙江,"20,22",11
325,4939791.3,2760,青岛市天泰公益基金会,36.106233,山东省青岛市崂山区,120.474027,2.0,200000,0,38,0.0,2.0,2120000.0,903821,5885656,儿童，扶贫助困，教育，卫生保健,0.0,山东,"6,19,27,11",15
326,2230000.0,2775,山东省青年创业就业基金会,36.652732,山东省济南市市中区,117.003804,0.0,271000,14,3,0.0,0.0,4600000.0,1852400,3900000,创业就业,0.0,山东,25,15
327,3907264.0,2667,黑龙江省东北林业大学教育发展基金会,45.747016,黑龙江省哈尔滨市香坊区,126.666093,4.0,142000,0,30,18.0,6.0,2000000.0,5925064,5949255,教育，科学研究,0.0,黑龙江,"27,10",9
328,6430000.0,2600,黑龙江省青年创业就业基金会,45.74581,黑龙江省哈尔滨市南岗区,126.626509,2.0,142000,1,8,0.0,0.0,4000000.0,4030000,4327549,创业就业,0.0,黑龙江,25,9
329,568395.8,2513,惠州市协和医疗救助基金会,23.03349,广东省惠州市惠城区,114.366969,,56400,0,1,,,2200000.0,0,170000,医疗救助,0.0,广东,15,19
330,404569.45,2507,广东省麦田教育基金会,23.294514,广东省广州市白云区,113.331306,7.0,41800,20,41,0.0,10000.0,2000000.0,5601730,1389284,教育,,广东,27,19
331,27251950.0,2447,北京京华公益事业基金会,39.975691,北京市朝阳区,116.40459,10.0,74700,167,25,4.0,38.0,4000000.0,57765468,51022714,扶贫助困，教育，卫生保健，医疗救助,0.0,北京,"19,27,11,15",1
332,8122000.0,2463,福州市人口福利基金会,26.04543,福建省福州市仓山区,119.358583,0.0,82500,3,23,0.0,4.0,2000000.0,2616000,9512526,儿童，妇女，公共服务，老年人,0.0,福建,"6,7,20,22",13
333,190000.0,3324,辽宁省青年创业基金会,41.799097,辽宁省沈阳市和平区,123.427854,4.0,261000,0,5,0.0,1.0,10000000.0,4660000,1680000,创业就业,0.0,辽宁,25,7
334,2510000.0,2506,四川成都蓝光助学基金会,30.747511,四川省成都市金牛区,103.966453,0.0,55900,0,9,0.0,50.0,2000000.0,0,4390100,教育,0.0,四川,27,21
335,15744008.34,2440,晋江市陈埭民族中学教育基金会,24.825437,福建省泉州市晋江市,118.616638,1.0,1240,0,6,0.0,2.0,3300000.0,13597162,8399817,教育,0.0,福建,27,13
336,11030200.0,2628,湖北省妇女儿童发展基金会,30.55423,湖北省武汉市武昌区,114.351905,1.0,192000,18,12,0.0,3.0,23500000.0,5219700,8793237,儿童，妇女,,湖北,"6,7",17
337,1500000.0,2865,河北省青年就业创业基金会,38.036838,河北省石家庄市裕华区,114.564728,1.0,139000,1,10,0.0,1.0,2000000.0,5160000,7966646,创业就业,0.0,河北,25,5
338,1728000.0,2501,湖北省宜昌一中教育发展基金会,30.716275,湖北省宜昌市点军区,111.288294,,181000,2,4,,,2000000.0,1728000,2908800,教育,0.0,湖北,27,17
339,112324237.76,2432,深圳壹基金公益基金会,22.606981,广东省深圳市盐田区,114.278483,72.0,1810000,183,21,1.0,32283.0,50000000.0,1125085,0,安全救灾，儿童，公益事业发展，心理健康，志愿服务,,广东,"24,6,28,9,18",19
340,43000000.0,2397,北京百度公益基金会,40.056856,北京市海淀区,116.307755,1.0,3780000,24,16,0.0,0.0,20000000.0,0,5064950,安全救灾，公益事业发展，教育,0.0,北京,"24,28,27",1
341,134221356.0,2471,泛海公益基金会,39.913489,北京市东城区,116.426654,3.0,244000,53,26,0.0,0.0,200000000.0,0,159406356,安全救灾，扶贫助困，环境，教育,0.0,北京,"24,19,17,27",1
342,0.0,2611,河仁慈善基金会,39.976124,北京市西城区,116.389414,7.0,198000,105,73,0.0,0.0,20000000.0,0,388633932,安全救灾，扶贫助困，教育，三农,0.0,北京,"24,19,27,16",1
343,33295000.0,2463,顶新公益基金会,39.915398,北京市东城区,116.436498,11.0,2790000,108,9,0.0,79.0,20000000.0,18859400,18859400,安全救灾，扶贫助困，教育,0.0,北京,"24,19,27",1
344,280000.0,2404,广东省环球公益基金会,23.154668,广东省广州市越秀区,113.3051,3.0,609000,6,11,0.0,550.0,5000000.0,77000,868199,儿童，扶贫助困，教育，文化,100000.0,广东,"6,19,27,13",19
345,25700522.81,2404,广东省华南农业大学教育发展基金会,23.167743,广东省广州市天河区,113.364832,7.0,95200,2,10,0.0,0.0,2000000.0,24023753,3652500,教育，科学研究,0.0,广东,"27,10",19
346,3530894.96,2347,上海慈慧公益基金会,31.227203,上海市黄浦区,121.496072,16.0,8460,42,21,3.0,1800.0,3000000.0,25957,136095,扶贫助困，教育,0.0,上海,"19,27",3
347,3283200.0,2441,厦门观音寺慈善基金会,24.508898,福建省厦门市湖里区,118.129043,4.0,29600,0,8,0.0,10.0,2000000.0,2876581,3599552,扶贫助困,0.0,福建,19,13
348,1231220.0,2352,北京瑞普华老年救助基金会,39.811089,北京市丰台区,116.188293,4.0,41600,21,9,0.0,10.0,2000000.0,1673820,230000,老年人，医疗救助,0.0,北京,"22,15",1
349,28493850.0,2362,阿拉善生态基金会,39.547806,内蒙古自治区阿拉善盟阿拉善左旗,105.038247,2.0,439000,68,6,0.0,2.0,10000000.0,30792800,2326929,环境,0.0,内蒙古,17,28
350,11400000.0,2440,长沙市志愿服务基金会,28.234235,湖南省长沙市岳麓区,112.945304,0.0,214000,0,9,0.0,10.0,4000000.0,2623900,2198200,志愿服务,900000.0,湖南,18,18
351,10669820.99,2681,河南省儿童希望救助基金会,34.723737,河南省郑州市中原区,113.624057,9.0,101000,77,18,0.0,260.0,2000000.0,0,0,儿童，教育，医疗救助,145000.0,河南,"6,27,15",16
352,116370936.83,3616,河南省光彩事业基金会,34.769958,河南省郑州市金水区,113.686795,4.0,26400,2,10,0.0,6.0,4000000.0,109785000,230699695,扶贫助困，三农，社区发展,0.0,河南,"19,16,5",16
353,34342289.9,2730,华中科技大学教育发展基金会,30.519599,湖北省武汉市洪山区,114.423592,10.0,297000,9,15,0.0,20.0,2000000.0,42608540,14664253,教育，科学研究,60000.0,湖北,"27,10",17
354,21594000.0,2573,武汉理工大学教育发展基金会,30.528069,湖北省武汉市洪山区,114.357354,10.0,361000,3,60,0.0,60.0,2000000.0,12721535,13776942,教育，科学研究,600000.0,湖北,"27,10",17
355,12300000.0,2656,长江大学教育发展基金会,30.341894,湖北省荆州市荆州区,112.22007,9.0,123000,15,71,0.0,0.0,2000000.0,6066827,6680451,教育，科学研究,0.0,湖北,"27,10",17
356,6819000.0,2691,中国地质大学（武汉）教育发展基金会,30.524441,湖北省武汉市洪山区,114.407989,4.0,356000,19,155,0.0,21.0,2000000.0,6330356,12017661,教育，科学研究,0.0,湖北,"27,10",17
357,2755948.0,2546,哈尔滨师范大学教育发展基金会,45.730612,黑龙江省哈尔滨市南岗区,126.628226,4.0,314000,0,35,0.0,5.0,2000000.0,1268820,2051468,教育，科学研究，心理健康,0.0,黑龙江,"27,10,9",9
358,11350000.0,2650,山东省中国海洋大学教育基金会,36.077271,山东省青岛市崂山区,120.44022,6.0,371000,3,47,0.0,0.0,2000000.0,14647580,15642748,教育，科学研究,0.0,山东,"27,10",15
359,3073670.0,2414,黑龙江大学教育发展基金会,45.715845,黑龙江省哈尔滨市南岗区,126.619836,5.0,373000,0,16,0.0,0.0,2000000.0,2734000,555662,教育，科学研究,0.0,黑龙江,"27,10",9
360,1600664.74,2538,黑龙江省体育发展基金会,45.75932,黑龙江省哈尔滨市南岗区,126.691683,,545000,16,0,,,4000000.0,0,0,体育,0.0,黑龙江,2,9
361,472761.65,2820,安徽韩再芬黄梅艺术基金会,30.519741,安徽省安庆市大观区,117.057661,3.0,36500,12,34,0.0,4.0,2000000.0,0,3009782,文化,0.0,安徽,13,12
362,4306000.0,2429,长安大学教育基金会,34.235655,陕西省西安市碑林区,108.962189,0.0,111000,0,50,0.0,0.0,2000000.0,7354900,7892300,教育，科学研究,0.0,陕西,"27,10",24
363,25753400.0,7426,甘肃妇女儿童发展基金会,36.056893,甘肃省兰州市城关区,103.84876,2.0,225000,3,3,0.0,100.0,4000000.0,2914500,2914500,儿童，妇女,16614500.0,甘肃,"6,7",25
364,6339154.76,2411,青海妇女儿童发展基金会,36.641906,青海省西宁市城西区,101.75529,1.0,215000,1,7,0.0,0.0,5700000.0,5346396,4924450,儿童，妇女,21857.0,青海,"6,7",26
365,1129600.0,2359,江汉大学教育发展基金会,30.515848,湖北省武汉市洪山区,114.166967,2.0,87700,1,30,0.0,0.0,2000000.0,1540266,2217686,教育,0.0,湖北,27,17
366,11000000.0,2323,北京中国国家博物馆事业发展基金会,39.911495,北京市东城区,116.408095,4.0,622000,11,9,2.0,0.0,2000000.0,0,1952913,文化,0.0,北京,13,1
367,4610000.0,2323,北京金融街慈善基金会,39.916593,北京市西城区,116.366097,6.0,575000,12,17,0.0,0.0,5100000.0,7189570,8779570,安全救灾，环境，教育,0.0,北京,"24,17,27",1
368,1138000.0,2327,苏州公安大病特困救助基金会,31.311078,江苏省苏州市沧浪区,120.62878,1.0,14200,1,0,0.0,0.0,5000000.0,0,0,公共安全，医疗救助,0.0,江苏,"4,15",10
369,2378000.0,2327,连云港正大天晴爱心基金会,34.607091,江苏省连云港市海州区,119.205633,,36000,1,7,,,4000000.0,625000,725000,扶贫助困，教育，医疗救助,0.0,江苏,"19,27,15",10
370,68733290.0,2380,安利公益基金会,39.915249,北京市东城区,116.422532,7.0,645000,165,26,14.0,580.0,50000000.0,39388906,45550682,儿童，教育，青少年,0.0,北京,"6,27,1",1
371,68189904.75,2281,上海华信公益基金会,31.215873,上海市徐汇区,121.443797,9.0,153000,23,24,0.0,96.0,5000000.0,41734000,15566523,扶贫助困,0.0,上海,19,3
372,767000.0,2518,长春工程学院教育基金会,43.859559,吉林省长春市朝阳区,125.291485,2.0,288000,0,29,0.0,0.0,2000000.0,7221000,1002009,教育,0.0,吉林,27,8
373,768500.0,2361,石家庄市志愿服务基金会,38.05697,河北省石家庄市新华区,114.482698,3.0,88900,3,24,0.0,1.0,4500000.0,575600,1612160,志愿服务,442500.0,河北,18,5
374,232000000.0,2265,北京华彬文化基金会,39.912147,北京市朝阳区,116.45844,8.0,195000,11,22,0.0,0.0,20000000.0,0,18362807,文化,0.0,北京,13,1
375,16711722.0,2265,北京爱它动物保护公益基金会,39.909397,北京市海淀区,116.323298,4.0,382000,20,25,0.0,10.0,2000000.0,6286606,3658127,动物保护,,北京,8,1
376,1544063.0,2344,浙江大学宁波理工学院教育发展基金会,29.821672,浙江省宁波市海曙区,121.576918,5.0,132000,0,21,0.0,20.0,5000000.0,393813,1955113,教育,150000.0,浙江,27,11
377,143067000.0,2341,中南大学教育基金会,28.174263,湖南省长沙市岳麓区,112.938031,7.0,295000,43,165,93.0,30.0,20000000.0,123600054,61725524,教育,30000.0,湖南,27,18
378,12846342.19,2281,云南华商公益基金会,24.986634,云南省昆明市,102.707179,2.0,180000,1,84,0.0,0.0,6200000.0,16279772,13225061,扶贫助困，教育，卫生保健，文化,2588875.0,云南,"19,27,11,13",23
379,23077046.21,2238,北京中央音乐学院教育基金会,39.908598,北京市西城区,116.366846,2.0,641000,9,22,5.0,1.0,2000000.0,19630000,1289629,教育,5000000.0,北京,27,1
380,432627.0,2378,云南君仁博爱基金会,25.071644,云南省昆明市盘龙区,102.734936,6.0,4210,1,2,2000000.0,30.0,2000000.0,474962,791200,残疾,0.0,云南,23,23
381,3551100.0,2293,广东省方圆公益基金会,23.12539,广东省广州市越秀区,113.319123,0.0,103000,0,29,0.0,0.0,6000000.0,8904301,8904301,安全救灾，扶贫助困，环境，科学研究,0.0,广东,"24,19,17,10",19
382,152892.5,2272,广东省保利地产和谐文化基金会,23.108027,广东省广州市海珠区,113.37857,0.0,15700,2,16,0.0,0.0,2000000.0,126000,1744101,安全救灾，环境，文化，艺术,0.0,广东,"24,17,13,14",19
383,28936734.36,2243,广东省唯品会慈善基金会,23.105879,广东省广州市荔湾区,113.237131,5.0,210000,24,22,0.0,10000.0,2000000.0,0,28513040,安全救灾，扶贫助困，环境，教育，医疗救助,0.0,广东,"24,19,17,27,15",19
384,0.0,2199,河北石家庄二中教育发展基金会,38.057286,河北省石家庄市新华区,114.484956,0.0,416000,0,13,0.0,0.0,2000000.0,0,3205861,教育,0.0,河北,27,5
385,1497270.7,2252,温州市实验中学教育发展基金会,28.021743,浙江省温州市鹿城区,120.663647,1.0,73200,2,16,0.0,0.0,4000000.0,1221312,3962856,教育,0.0,浙江,27,11
386,1606219.0,2293,浙江泰隆慈善基金会,30.230316,浙江省杭州市上城区,120.20061,1.0,8950,4,11,0.0,0.0,3000000.0,1362742,1787303,扶贫助困,0.0,浙江,19,11
387,4309689.61,2252,浙江省革命老区发展基金会,30.269145,浙江省杭州市西湖区,120.162476,0.0,28100,1,6,0.0,0.0,4000000.0,0,7938000,社区发展,0.0,浙江,5,11
388,753400.0,2202,吴江盛虹爱心基金会,30.911465,江苏省苏州市吴江市,120.676614,3.0,65300,0,8,0.0,36.0,3000000.0,0,1190000,扶贫助困，公益事业发展,0.0,江苏,"19,28",10
389,1662000.0,2215,苏州和合文化基金会,31.316807,江苏省苏州市虎丘区,120.574342,4.0,646000,19,30,0.0,350.0,3000000.0,128800,2835621,文化,0.0,江苏,13,10
390,3320604.87,2204,广东省山海源慈善基金会,23.140606,广东省广州市天河区,113.343719,5.0,10000,41,45,0.0,230.0,3000000.0,2203166,2446971,教育,0.0,广东,27,19
391,1844048.0,2341,宁夏麦丽燕基金会,38.473514,宁夏回族自治区银川市兴庆区,106.277031,3.0,108000,0,9,0.0,20.0,2000000.0,917048,1413558,创业就业，儿童，妇女，教育,0.0,宁夏,"25,6,7,27",31
392,954375.0,2213,台州市老年事业发展基金会,28.663053,浙江省台州市椒江区,121.450217,3.0,26600,4,6,3.0,52.0,4000000.0,1627551,4504451,公共服务，老年人,0.0,浙江,"20,22",11
393,0.0,2198,江西师范大学教育发展基金会,28.681401,江西省南昌市东湖区,115.92976,,590000,1,3,,,2000000.0,7703700,7703700,教育,490000.0,江西,27,14
394,22000000.0,2268,亿利公益基金会,39.912042,北京市西城区,116.371884,1.0,686000,26,20,0.0,0.0,20000000.0,0,12300500,环境，三农,0.0,北京,"17,16",1
395,2800000.0,2251,永恒慈善基金会,22.547435,广东省深圳市罗湖区,114.124369,0.0,568000,7,5,0.0,5.0,20000000.0,3700000,3700000,公共服务，教育,50000.0,广东,"20,27",19
396,14850000.0,2243,河南大学教育发展基金会,34.817771,河南省开封市顺河回族区,114.428527,9.0,753000,21,42,0.0,10.0,20000000.0,15015000,11310074,教育,0.0,河南,27,16
397,19283368.88,2159,宁波鄞州银行公益基金会,29.824133,浙江省宁波市鄞州区,121.54834,9.0,21900,10,23,0.0,500.0,100000000.0,28042918,31364736,安全救灾，扶贫助困，环境，教育,0.0,浙江,"24,19,17,27",11
398,17015584.13,2483,海南成美慈善基金会,20.061213,海南省海口市美兰区,110.348444,11.0,12700,101,80,10.0,422.0,50000000.0,16025242,23119810,安全救灾，动物保护，儿童，扶贫助困，妇女，环境，教育，卫生保健，医疗救助,100000.0,海南,"24,8,6,19,7,17,27,11,15",20
399,963800.0,2255,淮阴工学院教育发展基金会,,江苏省淮安市清江浦区,,0.0,14100,1,2,0.0,0.0,4000010.0,1848185,2373251,教育,0.0,江苏,27,10
400,5846953.0,2155,广东省执信教育发展基金会,23.138214,广东省广州市越秀区,113.298174,0.0,91700,0,4,0.0,0.0,4000000.0,1628453,20000,教育,0.0,广东,27,19
401,17172375.0,2168,广东省广州中医药大学教育发展基金会,23.067529,广东省广州市番禺区,113.413015,2.0,543000,0,9,0.0,0.0,2000000.0,1502375,1901375,教育,593375.0,广东,27,19
402,2384900.0,2246,江苏省扬州中学教育发展基金会,32.395307,江苏省扬州市广陵区,119.437029,0.0,103000,0,13,214800.0,3.0,4000000.0,5032400,5027700,教育,0.0,江苏,27,10
403,1978182.92,2140,北京市戈友公益援助基金会,39.970438,北京市海淀区,116.331574,4.0,14100,19,9,4.0,5.0,2350000.0,2793669,217687,安全救灾，教育,0.0,北京,"24,27",1
404,4790004.91,2064,青岛大学教育发展基金会,36.076839,山东省青岛市市南区,120.423957,0.0,525000,0,4,0.0,4.0,2000000.0,3533350,3937860,教育,0.0,山东,27,15
405,17600000.0,2112,首都师范大学教育基金会,39.936577,北京市海淀区,116.31632,5.0,587000,9,17,0.0,10.0,2000000.0,1408813,1511457,教育,0.0,北京,27,1
406,7597343.0,2155,四川省体育基金会,30.646558,四川省成都市武侯区,104.062084,1.0,1100000,1,9,0.0,0.0,4000000.0,20496400,17618556,体育,0.0,四川,2,21
407,,2156,四川桃花源生态保护基金会,39.953828,北京市东城区,116.418367,3.0,25000,1,9,0.0,3.0,9000000.0,9290000,6605736,环境,18500000.0,北京,17,1
408,3386043.5,2189,四川资阳五月阳光教育基金会,30.091647,四川省资阳市雁江区,104.755417,10.0,355000,0,14,0.0,0.0,5000000.0,650000,3833570,教育,0.0,四川,27,21
409,18104312.5,2352,福建省泉州第五中学教育基金会,24.912342,福建省泉州市鲤城区,118.602346,3.0,238000,0,3,0.0,0.0,2000000.0,8424800,8672650,教育,0.0,福建,27,13
410,10917378.42,2271,湖北大学教育发展基金会,30.584684,湖北省武汉市武昌区,114.338781,3.0,734000,9,92,0.0,0.0,4000000.0,8653653,9153653,教育,836530.84,湖北,27,17
411,7343430.0,2064,浙江千训爱心慈善基金会,30.292237,浙江省杭州市西湖区,120.066111,4.0,55400,1,13,2.0,500.0,2000000.0,14873600,22368920,扶贫助困,729390.0,浙江,19,11
412,2739000.0,2229,呼伦贝尔市扶贫基金会,49.225742,内蒙古自治区呼伦贝尔市海拉尔区,119.773177,3.0,44700,0,4,0.0,2.0,4000000.0,2739000,2689000,扶贫助困,0.0,内蒙古,19,28
413,3830350.0,2063,上海仁德基金会,31.238246,上海市浦东新区,121.528148,9.0,341000,126,44,8.0,11.0,4000000.0,6360351,1752493,扶贫助困，社区发展,848000.0,上海,"19,5",3
414,3800000.0,1703,吉林省康乃尔公益基金会,43.984935,吉林省吉林市,126.482984,1.0,4520,0,10,0.0,0.0,2000000.0,0,2229300,安全救灾，扶贫助困，教育，老年人,0.0,吉林,"24,19,27,22",8
415,1500000.0,2294,陕西省青年创业就业基金会,34.254062,陕西省西安市碑林区,108.94233,,215000,0,1,,,4000000.0,1500000,1500000,创业就业,0.0,陕西,25,24
416,797447.9,2056,上海明德公益基金会,31.121996,上海市闵行区,121.393805,3.0,896000,2,11,0.0,361.0,2000000.0,0,403500,教育,0.0,上海,27,3
417,2866200.0,2051,上海思麦公益基金会,31.190114,上海市青浦区,121.297441,6.0,505000,12,23,0.0,0.0,2000000.0,946850,1974374,教育,300000.0,上海,27,3
418,0.0,2043,广东省华商慈善基金会,22.987217,广东省广州市番禺区,113.374511,0.0,242000,3,4,0.0,0.0,2000000.0,0,135000,扶贫助困，教育,0.0,广东,"19,27",19
419,810000.0,2042,广东省依依关爱儿童基金会,22.381672,广东省珠海市香洲区,113.568516,0.0,4010,0,8,0.0,0.0,2000000.0,0,917291,安全救灾，儿童，青少年，医疗救助,0.0,广东,"24,6,1,15",19
420,84606340.0,2048,阿里巴巴公益基金会,30.283047,浙江省杭州市余杭区,120.029504,6.0,876000,125,99,0.0,12.0,50000000.0,100000000,147720998,安全救灾，扶贫助困，公益事业发展，环境,0.0,浙江,"24,19,28,17",11
421,28340604.2,2174,重庆西南大学教育基金会,29.830267,重庆市北碚区,106.436658,6.0,692000,0,25,0.0,20.0,4000000.0,43424151,18126754,教育,750000.0,重庆,27,4
422,0.0,2391,甘肃省兰州市城关区文化产业发展基金会,36.061024,甘肃省兰州市城关区,103.842599,6.0,26200,0,4,5000000.0,0.0,5000000.0,0,39694,文化,0.0,甘肃,13,25
423,7343716.0,2184,贵州省同心光彩事业基金会,26.587985,贵州省贵阳市南明区,106.718567,2.0,9200,0,20,1.0,25.0,4000000.0,9487033,9167053,扶贫助困,0.0,贵州,19,22
424,2122000.0,2152,湖南省宁乡一中教育基金会,28.281668,湖南省长沙市宁乡县,112.564749,,271000,0,7,,,2000000.0,560362,692362,教育,0.0,湖南,27,18
425,1310060.0,2058,云南省关心下一代基金会,25.037697,云南省昆明市西山区,102.70682,3.0,107000,0,7,0.0,20.0,4000000.0,0,1399754,儿童，青少年,0.0,云南,"6,1",23
426,438358.0,2330,湖南省湖湘文化基金会,28.200561,湖南省长沙市芙蓉区,113.010909,,150000,1,12,,,2500000.0,385100,801100,文化,0.0,湖南,13,18
427,52622478.76,1991,贵州省妇女儿童发展基金会,26.586819,贵州省贵阳市云岩区,106.723257,5.0,123000,66,42,0.0,20.0,4000000.0,46258007,56490407,儿童，妇女,38694972.0,贵州,"6,7",22
428,7680000.0,2152,大连市妇女儿童发展基金会,38.925126,辽宁省大连市中山区,121.651784,4.0,64600,2,29,0.0,0.0,4000000.0,6786298,6621294,儿童，妇女，教育，医疗救助,0.0,辽宁,"6,7,27,15",7
429,270282200.0,1993,江苏元林慈善基金会,31.919361,江苏省无锡市江阴市,120.277961,0.0,757000,0,15,0.0,0.0,256600000.0,0,57644250,安全救灾，老年人,0.0,江苏,"24,22",10
430,8757869.06,1958,北京中金公益基金会,39.916528,北京市朝阳区,116.467459,1.0,3070000,13,13,0.0,0.0,2000000.0,6248347,7691600,安全救灾，教育，医疗救助,0.0,北京,"24,27,15",1
431,1180000.0,1981,深圳市雅昌艺术基金会,22.561568,广东省深圳市南山区,113.978008,1.0,33600,2,4,0.0,10.0,2000000.0,350000,558572,艺术,0.0,广东,14,19
432,22342346.11,2639,北京市阳光保险爱心基金会,39.928953,北京市朝阳区,116.447908,2.0,235000,30,18,2.0,11000.0,2000000.0,11850000,15584653,安全救灾，扶贫助困，环境，教育，医疗救助,0.0,北京,"24,19,17,27,15",1
433,300000.0,1967,甘肃兴华青少年助学基金会,35.992495,甘肃省兰州市七里河区,103.771994,0.0,107000,5,1,0.0,6.0,2200000.0,0,0,教育，青少年,0.0,甘肃,"27,1",25
434,11742892.0,1985,辽宁省辽宁大学教育基金会,41.932385,辽宁省沈阳市皇姑区,123.401939,2.0,175000,0,26,0.0,0.0,2000000.0,1570490,1938755,教育，科学研究,0.0,辽宁,"27,10",7
435,850000.0,1931,内蒙古乌拉特后旗盛安爱心济困基金会,40.768245,内蒙古自治区巴彦淖尔市乌拉特后旗,107.422763,2.0,237,2,10,0.0,0.0,2000000.0,694000,937960,扶贫助困,0.0,内蒙古,19,28
436,7148208.0,1929,东台市阳光助残基金会,32.864281,江苏省盐城市东台市,120.332523,5.0,10300,0,10,0.0,5.0,5000000.0,8150500,4535300,残疾,0.0,江苏,23,10
437,6000000.0,1909,北京启明星辰慈善公益基金会,40.055179,北京市海淀区,116.294703,2.0,4150,8,40,0.0,12.0,2000000.0,591005,4201093,安全救灾，扶贫助困，青少年,0.0,北京,"24,19,1",1
438,11649667.71,1903,北京感恩公益基金会,39.902397,北京市西城区,116.372459,11.0,936000,20,18,0.0,1530.0,2000000.0,1822374,2484680,安全救灾，儿童，公益事业发展,3745302.0,北京,"24,6,28",1
439,52285150.0,1903,东风公益基金会,30.599184,湖北省武汉市硚口区,114.312318,3.0,508000,15,33,0.0,2100.0,50000000.0,13721124,60192924,安全救灾，扶贫助困，环境，教育,8400000.0,湖北,"24,19,17,27",17
440,262335778.9,1907,浙江敦和慈善基金会,30.213988,浙江省杭州市滨江区,120.205523,21.0,88300,77,210,0.0,0.0,20000000.0,800000,208110352,公益事业发展，文化,0.0,浙江,"28,13",11
441,10318750.0,1907,温州大学教育发展基金会,28.018922,浙江省温州市鹿城区,120.662636,0.0,778000,2,37,0.0,10.0,2000000.0,9918476,7552753,教育,20000.0,浙江,27,11
442,13910000.0,1943,湖北工业大学教育发展基金会,30.485686,湖北省武汉市洪山区,114.317816,2.0,303000,0,79,0.0,0.0,4000000.0,3234444,2884908,教育,0.0,湖北,27,17
443,31300000.0,1910,广东省潮商公益基金会,22.522583,广东省深圳市福田区,114.051733,3.0,550000,1,56,0.0,0.0,2000000.0,36031714,31250819,安全救灾，扶贫助困，教育，老年人,0.0,广东,"24,19,27,22",19
444,4101581.39,1902,河北省佛教慈善基金会,38.100473,河北省石家庄市新华区,114.441905,8.0,59800,3,14,0.0,50.0,2000000.0,11326584,8769822,文化,0.0,河北,13,5
445,0.0,1897,昆山市党员关爱暨帮扶困难群众基金会,31.389877,江苏省苏州市昆山市,120.963194,0.0,4160,0,3,0.0,0.0,100000000.0,17477842,24131500,扶贫助困,0.0,江苏,19,10
446,12370000.0,1868,北京京安公益基金会,39.83371,北京市丰台区,116.289661,3.0,3710000,7,9,0.0,0.0,16000000.0,3000000,7286860,扶贫助困，环境，卫生保健,0.0,北京,"19,17,11",1
447,7689777.54,1845,深圳市红树林湿地保护基金会,22.554081,广东省深圳市福田区,114.093727,17.0,25500,5,10,0.0,200.0,4000000.0,2139000,4405500,环境,,广东,17,19
448,9123571.0,1867,深圳市TCL公益基金会,22.544774,广东省深圳市南山区,113.958791,2.0,148000,12,17,0.0,1.0,10000000.0,0,37401963,安全救灾，环境，教育,162220.0,广东,"24,17,27",19
449,,2075,青海省玉树州困难职工帮扶基金会,33.01142,青海省玉树藏族自治州玉树县,97.01059,1.0,11800,0,2,0.0,0.0,5620000.0,1030000,2310000,扶贫助困,0.0,青海,19,26
450,3900000.0,1824,深圳市朱树豪纪念慈善基金会,22.764699,广东省深圳市宝安区,114.046338,1.0,870,1,16,,0.0,2000000.0,2935360,2935360,安全救灾，扶贫助困，教育，体育，文化,0.0,广东,"24,19,27,2,13",19
451,23836000.0,1813,鲁迅文化基金会,39.912639,北京市西城区,116.345843,8.0,487000,96,25,0.0,5.0,20000000.0,22226717,16572998,文化,900000.0,北京,13,1
452,222632341.36,1848,中国海油海洋环境与生态保护公益基金会,39.931042,北京市东城区,116.439329,0.0,105000,18,69,0.0,0.0,500000000.0,75000000,264227866,安全救灾，扶贫助困，环境，科学研究,0.0,北京,"24,19,17,10",1
453,21817028.0,1791,宁波诺丁汉大学教育发展基金会,29.876801,浙江省宁波市海曙区,121.535395,1.0,24700,0,21,0.0,0.0,18000000.0,21665000,3763783,教育,0.0,浙江,27,11
454,0.0,1791,浙江省寅幸慈善基金会,30.542141,浙江省湖州市德清县,119.984537,3.0,27400,1,32,0.0,50.0,6000000.0,0,2339490,扶贫助困,0.0,浙江,19,11
455,36577050.0,1879,广西民族大学教育基金会,22.844751,广西壮族自治区南宁市西乡塘区,108.242401,3.0,474000,1,3,0.0,0.0,2000000.0,45027300,42020200,教育,0.0,广西,27,29
456,76080267.48,1819,增爱公益基金会,31.267604,上海市虹口区,121.496125,7.0,1480000,42,70,0.0,76.0,50000000.0,36276877,24174018,扶贫助困，公益事业发展，文化,0.0,上海,"19,28,13",3
457,22702473.7,1694,思利及人公益基金会,23.12832,广东省广州市天河区,113.328343,5.0,652000,68,42,0.0,0.0,20000000.0,20062485,19898185,安全救灾，扶贫助困，教育，卫生保健,0.0,广东,"24,19,27,11",19
458,59940565.3,1766,北京电影学院教育基金会,39.977827,北京市海淀区,116.362382,3.0,946000,10,4,0.0,0.0,2000000.0,1598500,1598500,教育，艺术,0.0,北京,"27,14",1
459,2709521.0,1766,上海汤臣慈善基金会,31.234845,上海市浦东新区,121.530708,3.0,135000,0,7,0.0,0.0,2000000.0,0,1271000,安全救灾，儿童，扶贫助困，青少年,0.0,上海,"24,6,19,1",3
460,300000.0,1902,石河子大学教育基金会,44.310517,新疆维吾尔自治区自治区直辖县级行政区划石河子市,86.064771,1.0,63400,0,4,0.0,0.0,2000000.0,3955000,4144858,教育,0.0,新疆,27,32
461,0.0,2180,新疆维吾尔自治区新勇教育基金会,43.818547,新疆维吾尔自治区乌鲁木齐市沙依巴克区,87.573015,2.0,729000,0,3,0.0,0.0,15000000.0,2000000,2080000,教育,0.0,新疆,27,32
462,170000.0,1831,安徽黄山公益基金会,31.867499,安徽省合肥市庐阳区,117.301691,7.0,193000,0,4,0.0,0.0,2000000.0,100000,570000,扶贫助困,0.0,安徽,19,12
463,272000.0,1858,北海天宁慈善基金会,21.479781,广西壮族自治区北海市,109.111156,1.0,40400,1,37,0.0,0.0,2000000.0,491300,1148150,儿童，公共服务，环境，教育，文化，医疗救助,0.0,广西,"6,20,17,27,13,15",29
464,7395690.0,1741,北京尚善公益基金会,39.969634,北京市通州区,116.718192,5.0,1150000,27,18,0.0,5.0,2000000.0,2200000,3859598,公益事业发展，心理健康,5200000.0,北京,"28,9",1
465,2409500.0,1741,北京怡海公益基金会,39.842679,北京市丰台区,116.30492,1.0,228000,11,11,0.0,0.0,2000000.0,1480157,1063555,扶贫助困，教育，老年人,0.0,北京,"19,27,22",1
466,12697752.93,12793,云南省妇女儿童发展基金会,25.038713,云南省昆明市西山区,102.705145,6.0,181000,8,19,0.0,0.0,4000000.0,9718930,10887104,儿童，妇女,1149363.4,云南,"6,7",23
467,805735.0,1867,榆林学院教育发展基金会,38.295834,陕西省榆林市榆阳区,109.724295,7.0,29400,1,6,0.0,15.0,4090000.0,1300946,1300946,教育,1177970.0,陕西,27,24
468,2355000.0,1769,武汉市社会组织发展基金会,30.605661,湖北省武汉市江岸区,114.292889,,718000,0,3,,,4000000.0,1029047,1189870,公益事业发展,135000.0,湖北,28,17
469,5800000.0,1718,浙江青田之家公益基金会,28.138663,浙江省丽水市青田县,120.304271,1.0,47900,1,23,0.0,0.0,20000000.0,1500000,8732288,公益事业发展,0.0,浙江,28,11
470,315070.0,1775,宁夏回族自治区关心下一代基金会,38.464266,宁夏回族自治区银川市兴庆区,106.382121,2.0,15300,0,9,0.0,0.0,4000000.0,2213138,2288088,青少年,0.0,宁夏,1,31
471,6798035.34,1705,深圳市志愿服务基金会,22.55501,广东省深圳市福田区,114.109227,4.0,203000,5,7,8.0,400.0,10000000.0,1176600,1176600,志愿服务,1401911.84,广东,18,19
472,5234000.0,1736,广东省广雅教育发展基金会,23.143482,广东省广州市荔湾区,113.249327,1.0,207000,1,5,0.0,0.0,2600000.0,5421466,2545800,教育,0.0,广东,27,19
473,53002385.0,1735,中兴通讯公益基金会,22.548147,广东省深圳市南山区,113.956006,1.0,188000,27,32,0.0,218.0,50000000.0,876070,11121279,安全救灾，扶贫助困，环境,0.0,广东,"24,19,17",19
474,10332929.72,1729,福建省同心慈善基金会,24.474266,福建省厦门市思明区,118.113796,11.0,62600,6,41,0.0,100.0,2000000.0,9500233,6848756,扶贫助困,,福建,19,13
475,5285427.48,1728,上海海事大学教育发展基金会,31.249083,上海市浦东新区,121.543969,2.0,59700,0,30,0.0,0.0,2000000.0,1824000,2541700,教育,0.0,上海,27,3
476,14985000.0,1699,上海医学创新发展基金会,31.218517,上海市黄浦区,121.477878,13.0,448000,1,13,0.0,4.0,2000000.0,28908627,1964962,教育，医疗救助,0.0,上海,"27,15",3
477,2000000.0,1757,深圳市欣旺达慈善基金会,22.687309,广东省深圳市宝安区,113.94596,0.0,52700,0,21,,0.0,2000000.0,0,3731420,扶贫助困，公共服务，教育,0.0,广东,"19,20,27",19
478,500000.0,1791,河南省华夏历史文明传承创新基金会,34.780095,河南省郑州市金水区,113.765637,1.0,16400,0,2,0.0,3.0,6000000.0,0,1000000,文化,0.0,河南,13,16
479,1817000.0,1679,吉林省体育事业发展基金会,43.875425,吉林省长春市南关区,125.349438,1.0,324000,1,4,1.0,0.0,5000000.0,817000,1168420,体育,0.0,吉林,2,8
480,5495221.0,1662,安徽省体育事业发展基金会,31.862316,安徽省合肥市包河区,117.304399,0.0,311000,3,8,0.0,0.0,4000000.0,5649709,5074981,体育,0.0,安徽,2,12
481,3180000.0,1693,江苏言恭达文化基金会,31.928952,江苏省南京市江宁区,118.8178,,20100,0,7,,,3000000.0,0,3200000,文化,0.0,江苏,13,10
482,2500000.0,1648,北京市壹嘉壹慈善基金会,39.989658,北京市朝阳区,116.422386,1.0,324000,7,3,0.0,2.0,2000000.0,320000,500000,扶贫助困，卫生保健，医疗救助,0.0,北京,"19,11,15",1
483,5110000.0,1658,北京中国青年政治学院教育基金会,39.95573,北京市海淀区,116.315643,6.0,850000,9,13,0.0,0.0,2000000.0,3420000,2236954,教育,0.0,北京,27,1
484,27850000.0,1699,山东省友芳公益基金会,35.024034,山东省临沂市罗庄区,118.272931,0.0,1120,1,35,0.0,0.0,3500000.0,1047800,3338724,残疾，教育，老年人,0.0,山东,"23,27,22",15
485,8207300.0,1903,山东英才学院教育发展基金会,36.692567,山东省济南市章丘市,117.330595,1.0,99800,0,33,4.0,326.0,3000000.0,9644668,10663352,教育,0.0,山东,27,15
486,1940000.0,1888,青岛农业大学教育发展基金会,36.325407,山东省青岛市城阳区,120.408736,1.0,729000,2,66,0.0,5.0,2000000.0,1969000,2371900,教育,200000.0,山东,27,15
487,3480000.0,1713,长沙市体育发展基金会,28.204401,湖南省长沙市开福区,112.987743,1.0,389000,0,20,0.0,0.0,4000000.0,3290000,3481633,体育,250000.0,湖南,2,18
488,1750528.0,1705,广东省崇善乐慈善基金会,22.805398,广东省广州市南沙区,113.552064,1.0,159000,1,21,0.0,0.0,2000000.0,1418786,1521338,教育，医疗救助,0.0,广东,"27,15",19
489,5313892.74,1784,广东省财新公益基金会,23.142141,广东省广州市越秀区,113.300239,2.0,849000,0,15,1.0,1.0,2000000.0,4068492,1449194,公共服务，教育，文化,,广东,"20,27,13",19
490,19009750.0,1699,重庆市武隆县扶贫基金会,29.326209,重庆市武隆县,107.774218,3.0,78700,0,48,0.0,0.0,4000000.0,31790424,31790424,扶贫助困,600000.0,重庆,19,4
491,5459200.0,1665,广东省鸿发慈善基金会,23.024107,广东省东莞市,113.765443,5.0,273000,0,15,0.0,13.0,2000000.0,4678260,7078260,安全救灾，残疾，儿童，扶贫助困，教育,0.0,广东,"24,23,6,19,27",19
492,6414824.5,1680,广西壹方慈善基金会,22.81137,广西壮族自治区南宁市青秀区,108.364083,7.0,234000,7,38,0.0,0.0,2000000.0,4992091,5419006,扶贫助困,0.0,广西,19,29
493,3250000.0,1620,北京健康长城公益基金会,40.074743,北京市昌平区,116.15809,5.0,731000,8,19,0.0,500.0,2000000.0,0,1496550,卫生保健,0.0,北京,11,1
494,2368000.0,1637,广东省谢汉才慈善基金会,23.122017,广东省广州市越秀区,113.282935,0.0,222,1,8,0.0,0.0,2000000.0,2330000,356200,教育,0.0,广东,27,19
495,8005114.0,1615,深圳市绿色低碳发展基金会,22.560308,广东省深圳市南山区,113.958416,8.0,244000,6,12,,5.0,2000000.0,3254635,846869,环境,2000000.0,广东,17,19
496,2844015.8,1622,安徽李恩三慈善基金会,31.753039,安徽省六安市裕安区,116.302573,3.0,540,34,17,0.0,0.0,2000000.0,408750,5382041,教育,0.0,安徽,27,12
497,22364200.0,1606,北京联想控股公益基金会,39.990027,北京市海淀区,116.331664,2.0,312000,16,16,0.0,0.0,2000000.0,0,17941574,创业就业，扶贫助困，环境，教育，志愿服务,0.0,北京,"25,19,17,27,18",1
498,600000.0,1609,福建省人口福利基金会,26.099127,福建省福州市晋安区,119.324488,3.0,297000,0,7,0.0,0.0,4000000.0,4950000,4422500,扶贫助困,0.0,福建,19,13
499,40797275.0,1596,福建省正荣公益基金会,26.075206,福建省福州市仓山区,119.357107,7.0,197000,14,20,0.0,5.0,2000000.0,17536300,17366500,扶贫助困，公益事业发展,,福建,"19,28",13
500,7430000.0,1589,广东省尚东公益基金会,23.120343,广东省广州市天河区,113.337658,0.0,73000,1,13,0.0,0.0,3000000.0,5340000,8340000,安全救灾，扶贫助困，教育,0.0,广东,"24,19,27",19
501,62200000.0,1687,顺丰公益基金会,22.551731,广东省深圳市福田区,114.055593,6.0,504000,21,28,0.0,3089.0,20000000.0,0,7279172,安全救灾，扶贫助困，教育,0.0,广东,"24,19,27",19
502,62010299.66,1609,重庆大学教育发展基金会,29.571548,重庆市沙坪坝区,106.476544,9.0,1090000,6,23,7.0,200.0,20000000.0,151906120,179644710,教育,100000.0,重庆,27,4
503,31550000.0,1600,兰州大学教育发展基金会,36.050603,甘肃省兰州市城关区,103.866942,6.0,495000,20,58,0.0,3.0,20000000.0,14622500,11987400,教育,0.0,甘肃,27,25
504,8444965.0,1818,江西省体育发展基金会,28.692375,江西省南昌市东湖区,115.910148,,683000,0,2,,,4000000.0,8444965,5990000,体育,0.0,江西,2,14
505,4016880.0,1666,资阳市关心下一代基金会,30.123832,四川省资阳市雁江区,104.658625,4.0,5400,0,17,0.0,0.0,4000000.0,2228080,2893378,儿童，青少年,0.0,四川,"6,1",21
506,5366286.2,1643,雅安市关心下一代基金会,29.986235,四川省雅安市雨城区,103.019898,2.0,18900,1,20,0.0,10.0,4500000.0,2869167,3964524,青少年,0.0,四川,1,21
507,0.0,1566,江苏国信企业发展研究基金会,31.984306,江苏省南京市雨花台区,118.79251,4.0,53100,0,3,0.0,0.0,30000000.0,0,2510000,科学研究,0.0,江苏,10,10
508,6550000.0,1546,北京凌盛爱心公益基金会,39.951512,北京市朝阳区,116.470155,5.0,105000,5,5,0.0,0.0,2000000.0,4550000,4541620,残疾，教育，医疗救助,0.0,北京,"23,27,15",1
509,9573900.0,1532,北京语言大学教育基金会,40.001044,北京市海淀区,116.352285,5.0,1090000,6,11,15.0,15.0,2000000.0,3505700,2131533,教育,0.0,北京,27,1
510,35334750.0,1538,北京永青农村发展基金会,39.903365,北京市东城区,116.420327,3.0,496000,4,12,0.0,0.0,2000000.0,0,7880064,三农,0.0,北京,16,1
511,439533.9,1642,河南省福兴儿童公益基金会,34.777578,河南省郑州市金水区,113.713918,5.0,50300,14,21,3.0,300.0,2000000.0,376893,382837,儿童,91626.9,河南,6,16
512,1530000.0,1540,山东省普觉公益基金会,37.492389,山东省烟台市福山区,121.270243,4.0,114000,6,46,4.0,500.0,2000000.0,2938200,3749173,残疾，扶贫助困,0.0,山东,"23,19",15
513,1000000.0,1556,山东省体育基金会,36.654577,山东省济南市市中区,117.014881,0.0,955000,0,1,0.0,0.0,500000000.0,0,100000,体育,0.0,山东,2,15
514,5455000.0,1518,广东省一心公益基金会,,广东省广州市增城区,,7.0,68700,29,13,5.0,324.0,2000000.0,162600,2440391,安全救灾，扶贫助困，教育，老年人，社区发展，医疗救助,0.0,广东,"24,19,27,22,5,15",19
515,25223926.0,1497,北京市永源公益基金会,40.292092,北京市怀柔区,116.644461,7.0,10900,13,8,0.0,481.0,4200000.0,5808968,5808968,教育，文化,10800000.0,北京,"27,13",1
516,2534553.0,1502,广东省明德幸福文化教育基金会,23.242796,广东省广州市白云区,113.351092,2.0,458000,14,6,0.0,15.0,2000000.0,0,1519580,教育,0.0,广东,27,19
517,6071000.0,1540,攀枝花市关心下一代基金会,26.589857,四川省攀枝花市,101.724113,3.0,5840,1,48,0.0,0.0,4000000.0,3635054,3168304,青少年,0.0,四川,1,21
518,2530000.0,1517,广西吕贻标爱心基金会,24.342822,广西壮族自治区柳州市柳南区,109.383394,2.0,485,0,41,0.0,13.0,10000000.0,0,3212029,教育,0.0,广西,27,29
519,13340000.0,1648,重庆光彩事业基金会,29.602888,重庆市渝北区,106.545266,2.0,55300,0,10,0.0,0.0,4500000.0,13610000,11977333,扶贫助困,120000.0,重庆,19,4
520,2800000.0,1524,安徽道德建设基金会,31.867509,安徽省合肥市庐阳区,117.301761,1.0,255000,0,3,0.0,0.0,4641000.0,1217000,1046206,志愿服务,0.0,安徽,18,12
521,,1501,安徽金牛公益基金会,31.852953,安徽省合肥市包河区,117.293295,2.0,52400,0,11,0.0,0.0,2000000.0,30600,2096800,安全救灾，扶贫助困，教育,0.0,安徽,"24,19,27",12
522,2150820.48,1498,济南大学教育发展基金会,36.621388,山东省济南市槐荫区,116.963892,0.0,129000,0,14,0.0,0.0,2000000.0,549000,816200,教育,0.0,山东,27,15
523,3640000.0,2197,常州宝林慈善基金会,31.717702,江苏省常州市武进区,119.903435,0.0,22600,2,7,0.0,5.0,3000000.0,0,632700,扶贫助困，公益事业发展，老年人，医疗救助,0.0,江苏,"19,28,22,15",10
524,6521749.45,1559,重庆市青年志愿服务基金会,29.570645,重庆市渝中区,106.554662,3.0,305000,2,15,0.0,3850000.0,4000000.0,960000,1929632,志愿服务,0.0,重庆,18,4
525,3245577.9,1461,浙江省北京师范大学南湖附属学校教育基金会,30.750505,浙江省嘉兴市,120.809014,0.0,21900,1,6,0.0,4.0,2000000.0,5685522,1532000,教育,0.0,浙江,27,11
526,8050000.0,1489,西安科技大学教育基金会,34.240797,陕西省西安市碑林区,108.969958,0.0,728000,0,10,0.0,152.0,5100000.0,1077900,885500,教育,0.0,陕西,27,24
527,13997240.0,1434,河北省妇女儿童发展基金会,38.0415,河北省石家庄市桥西区,114.472102,3.0,185000,0,11,0.0,1520.0,4000000.0,12632233,11086033,儿童，妇女,1011533.0,河北,"6,7",5
528,5600000.0,1454,绵阳市关心下一代基金会,31.435735,四川省绵阳市涪城区,104.670514,1.0,16100,0,13,0.0,0.0,4000000.0,1511403,1071403,青少年,0.0,四川,1,21
529,,1435,深圳市精锐教育基金会,22.528744,广东省深圳市南山区,113.925974,1.0,15000,2,14,,1.0,2000000.0,0,2030105,教育,0.0,广东,27,19
530,10011866.0,1420,北京永真公益基金会,39.954535,北京市朝阳区,116.457284,5.0,2840000,5,16,1.0,0.0,2000000.0,1601901,1135479,扶贫助困,3048000.0,北京,19,1
531,2536800.0,1420,北京萤火虫爱心公益基金会,39.888274,北京市朝阳区,116.481891,5.0,39600,7,6,0.0,300.0,2000000.0,0,306579,扶贫助困,0.0,北京,19,1
532,5500000.01,1420,广东省丹姿慈善基金会,23.201017,广东省广州市白云区,113.271679,1.0,6360,1,14,0.0,0.0,2000000.0,3322500,3322500,安全救灾，教育，老年人,0.0,广东,"24,27,22",19
533,29110000.0,1439,郑州市嵩山文明研究基金会,34.764861,河南省郑州市管城回族区,113.757631,2.0,3510,0,3,0.0,0.0,2000000.0,0,1950000,科学研究,0.0,河南,10,16
534,2582980.72,1405,广东省南方阅读公益基金会,23.128817,广东省广州市越秀区,113.321018,3.0,327000,1,18,1.0,250.0,2000000.0,824100,671293,教育,0.0,广东,27,19
535,2411000.0,1401,苏州明德公益基金会,31.38606,江苏省苏州市虎丘区,120.473357,3.0,242000,0,8,0.0,1000.0,3000000.0,0,2829084,公益事业发展,0.0,江苏,28,10
536,2637400.0,1419,浙江中国计量学院教育基金会,30.315517,浙江省杭州市江干区,120.396008,5.0,91000,1,12,0.0,0.0,2000000.0,775000,922300,教育,0.0,浙江,27,11
537,10669680.03,1386,广东省慧灵智障人士扶助基金会,23.150559,广东省广州市越秀区,113.295574,4.0,3390,5,11,0.0,100.0,2000000.0,723317,612620,残疾,614817.0,广东,23,19
538,1000000.0,1417,新疆生产建设兵团青年创业增收基金会,43.808565,新疆维吾尔自治区乌鲁木齐市天山区,87.619511,0.0,79300,0,0,0.0,0.0,4800000.0,0,0,创业就业,0.0,新疆,25,32
539,300000.0,1390,杭州市公羊会公益基金会,30.273546,浙江省杭州市下城区,120.168761,4.0,108000,1,4,3.0,518.0,2000000.0,488900,798200,安全救灾，残疾，扶贫助困，公共服务，教育，老年人,0.0,浙江,"24,23,19,20,27,22",11
540,590500.0,1372,宁波市海曙区公益组织发展基金会,29.880558,浙江省宁波市海曙区,121.527824,1.0,3180,0,24,0.0,0.0,2000000.0,0,4729376,公益事业发展,0.0,浙江,28,11
541,2997200.0,1376,遂宁市关心下一代基金会,30.509864,四川省遂宁市船山区,105.583157,1.0,6060,0,23,0.0,25.0,4088000.0,2296400,4613905,青少年,0.0,四川,1,21
542,2345330.0,1370,西昌市关心下一代基金会,27.897982,四川省凉山彝族自治州西昌市,102.27463,6.0,3550,0,18,0.0,10.0,4000000.0,2208874,2208874,青少年,0.0,四川,1,21
543,2600000.0,1370,凉山州关心下一代基金会,27.887861,四川省凉山彝族自治州西昌市,102.273394,10.0,20300,0,43,0.0,20.0,4000000.0,6360389,6360389,青少年,0.0,四川,1,21
544,21262981.0,1341,山西省妇女儿童发展基金会,37.865985,山西省太原市迎泽区,112.581721,4.0,143000,22,23,0.0,600.0,4000000.0,13238325,7108217,儿童，妇女,0.0,山西,"6,7",6
545,29763500.0,1348,深圳市同心慈善基金会,22.547483,广东省深圳市罗湖区,114.122917,0.0,141000,5,17,,0.0,2000000.0,0,26170000,扶贫助困，文化,,广东,"19,13",19
546,6479299.43,1469,北京彩虹公益基金会,39.915271,北京市朝阳区,116.445374,3.0,342000,7,4,0.0,2.0,2000000.0,0,51587,扶贫助困,0.0,北京,19,1
547,500000.0,1329,深圳市荣超公益基金会,22.553744,广东省深圳市福田区,114.07013,5.0,373000,2,3,,0.0,2000000.0,0,500000,安全救灾，扶贫助困，环境，教育，医疗救助,0.0,广东,"24,19,17,27,15",19
548,37979931.4,1313,北京天使妈妈慈善基金会,39.896152,北京市丰台区,116.2849,12.0,485000,39,13,0.0,80.0,2000000.0,21912000,20771000,医疗救助,29047342.45,北京,15,1
549,22773202.62,1319,海南省残疾人基金会,20.036068,海南省海口市美兰区,110.361005,28.0,297000,52,18,0.0,90.0,4000000.0,6000000,40770287,残疾,6030000.0,海南,23,20
550,11827235.06,1308,北京三一公益基金会,39.946565,北京市东城区,116.414591,5.0,1180000,26,23,0.0,22.0,5000000.0,640800,3618360,公益事业发展，教育，科学研究,0.0,北京,"28,27,10",1
551,360000000.0,1322,广东省何享健慈善基金会,22.926892,广东省佛山市顺德区,113.216001,6.0,8990,2,13,0.0,0.0,50000000.0,0,69363190,安全救灾，教育，老年人，体育，文化，艺术,0.0,广东,"24,27,22,2,13,14",19
552,8431614.86,1323,南昌市青少年发展基金会,28.690477,江西省南昌市东湖区,115.865748,7.0,137000,11,33,36.0,100.0,4000000.0,2191604,2244877,教育，青少年,0.0,江西,"27,1",14
553,10600000.0,1558,南昌市汇仁教育基金会,28.575324,江西省南昌市南昌县,115.920203,3.0,29700,0,14,0.0,0.0,10000000.0,0,2855000,教育,0.0,江西,27,14
554,17578206.0,1170,浙江省体育基金会,30.207036,浙江省杭州市西湖区,120.088993,4.0,931000,10,11,0.0,18.0,4000000.0,14181326,17437726,体育,0.0,浙江,2,11
555,47115697.5,1292,北京达理公益基金会,39.916569,北京市西城区,116.365088,2.0,2620000,22,7,0.0,0.0,2000000.0,44585920,18170588,公益事业发展,0.0,北京,28,1
556,6700000.0,1259,上海大学教育发展基金会,31.318695,上海市宝山区,121.410448,0.0,726000,0,8,0.0,260.0,2000000.0,2290000,1056914,教育,1500000.0,上海,27,3
557,,1256,上海诺亚公益基金会,31.257165,上海市杨浦区,121.523584,1.0,626000,1,6,0.0,603.0,4000000.0,20000,1207900,扶贫助困，公益事业发展,0.0,上海,"19,28",3
558,,1435,泸州市关心下一代基金会,28.876901,四川省泸州市江阳区,105.371713,3.0,18900,0,5,0.0,0.0,4000000.0,2405000,1770000,青少年,0.0,四川,1,21
559,0.0,1200,浙江西子慈善基金会,30.262888,浙江省杭州市,120.212504,1.0,7580,1,3,0.0,3.0,2000000.0,0,1400000,扶贫助困,0.0,浙江,19,11
560,260000.0,1204,泉州向善救助基金会,24.887261,福建省泉州市丰泽区,118.606824,2.0,36000,0,18,0.0,0.0,2000000.0,0,1570000,扶贫助困,0.0,福建,19,13
561,0.0,1060,武汉市石门峰慈善基金会,30.521398,湖北省武汉市洪山区,114.483789,9.0,3560,0,3,0.0,0.0,2000000.0,0,40900,扶贫助困，教育，老年人，卫生保健，文化，医疗救助,0.0,湖北,"19,27,22,11,13,15",17
562,22030468.27,1176,浙江馥莉慈善基金会,30.20058,浙江省杭州市萧山区,120.263711,0.0,12800,2,6,0.0,12.0,2000000.0,8400000,8434580,扶贫助困,0.0,浙江,19,11
563,0.0,1183,浙江省杭州宋都公益基金会,30.261301,浙江省杭州市江干区,120.225976,0.0,189000,1,9,0.0,0.0,20000000.0,0,1188400,教育,0.0,浙江,27,11
564,24797294.4,1159,上海瑞华慈善基金会,31.364338,上海市嘉定区,121.251014,0.0,1150000,0,7,0.0,0.0,2000000.0,2880000,2880000,安全救灾，残疾，扶贫助困,0.0,上海,"24,23,19",3
565,3653912.0,1165,广东省烛光教育发展基金会,23.124001,广东省广州市荔湾区,113.255059,0.0,18300,0,6,0.0,0.0,2000000.0,0,735320,教育,0.0,广东,27,19
566,250000.0,1147,深圳市石门坎教育公益基金会,22.541165,广东省深圳市南山区,113.951174,0.0,70100,0,4,0.0,12.0,2000000.0,0,151026,教育,0.0,广东,27,19
567,65000.0,1151,武汉善之源公益基金会,30.592326,湖北省武汉市江岸区,114.308921,,11400,0,6,,,2000000.0,0,153265,残疾，儿童，扶贫助困，教育，老年人，医疗救助,0.0,湖北,"23,6,19,27,22,15",17
568,112000.0,1257,洪泽县爱心助学基金会,,江苏省淮安市洪泽区,,8.0,99500,0,1,0.0,2.0,,475000,451000,教育,0.0,江苏,27,10
569,2000000.0,1104,上海荣昶公益基金会,31.199751,上海市徐汇区,121.452679,5.0,7160,3,6,0.0,0.0,20000000.0,0,2550000,安全救灾，教育，老年人,0.0,上海,"24,27,22",3
570,4000000.0,1082,四川喜马拉雅慈善基金会,30.720891,四川省成都市金牛区,103.997269,3.0,26800,1,8,0.0,0.0,4000000.0,319100,399068,安全救灾，扶贫助困,0.0,四川,"24,19",21
571,7500000.0,1075,浙江天景生公益基金会,30.209591,浙江省杭州市上城区,120.148359,6.0,5010,1,3,0.0,2.0,6000000.0,0,3459000,教育，文化，医疗救助,0.0,浙江,"27,13,15",11
572,2273151.14,1071,北京绿色阳光环保公益基金会,39.918988,北京市门头沟区,116.118366,0.0,257000,3,3,0.0,0.0,2000000.0,70000,566000,环境,0.0,北京,17,1
573,,1078,广州农商银行太阳公益基金会,23.120278,广东省广州市天河区,113.327163,1.0,244000,0,5,1.0,720.0,100000000.0,650000,8806500,安全救灾，残疾，扶贫助困，公共服务，教育,0.0,广东,"24,23,19,20,27",19
574,3000000.0,1055,湖南践行国学公益基金会,28.20767,湖南省长沙市雨花区,112.978104,2.0,61800,1,7,0.0,150.0,3000000.0,66000,419926,文化,0.0,湖南,13,18
575,1084700.0,1055,德阳市关心下一代基金会,31.132556,四川省德阳市,104.405471,5.0,14700,1,4,0.0,5.0,8932000.0,1826500,352200,儿童，教育,0.0,四川,"6,27",21
576,12950000.0,1041,北京京东公益基金会,39.796766,北京市大兴区,116.574435,3.0,289000,7,7,1.0,2.0,2000000.0,6850000,6850000,安全救灾，扶贫助困，环境，教育,0.0,北京,"24,19,17,27",1
577,2721654.59,1076,四川省索玛慈善基金会,27.88571,四川省凉山彝族自治州西昌市,102.247964,9.0,266000,10,7,0.0,80.0,2000000.0,7035100,5174000,扶贫助困，教育,0.0,四川,"19,27",21
578,2280000.0,1035,福建省安发高益槐科技教育发展基金会,26.642014,福建省宁德市,119.566887,4.0,647,0,2,0.0,0.0,2000000.0,280000,280000,教育,0.0,福建,27,13
579,3800000.0,1015,广东省同心圆慈善基金会,23.130554,广东省广州市天河区,113.322846,2.0,175000,0,2,0.0,50.0,3000000.0,1486000,707589,扶贫助困，教育，卫生保健,0.0,广东,"19,27,11",19
580,8670000.0,976,北京阳光未来艺术教育基金会,39.960337,北京市朝阳区,116.474305,1.0,1360000,2,9,0.0,20.0,2000000.0,0,878512,艺术,0.0,北京,14,1
581,2522000.0,972,北京市光明慈善基金会,39.933963,北京市通州区,116.645867,2.0,248000,2,2,2.0,10.0,2000000.0,625300,478047,公益事业发展,0.0,北京,28,1
582,3381837.7,969,上海叔同深渊科学技术发展基金会,31.257613,上海市黄浦区,121.489896,2.0,39700,0,0,0.0,1.0,2000000.0,0,0,科学研究,0.0,上海,10,3
583,10000000.0,969,上海至美公益基金会,31.236784,上海市黄浦区,121.485291,2.0,899000,1,3,0.0,0.0,10000000.0,0,150000,安全救灾，残疾，扶贫助困，教育，老年人,0.0,上海,"24,23,19,27,22",3
584,4259192.0,959,上海王正国创伤医学发展基金会,31.227203,上海市黄浦区,121.496072,1.0,5320,0,1,0.0,0.0,2000000.0,316000,0,卫生保健,0.0,上海,11,3
585,18000000.0,958,上海科技大学教育发展基金会,31.20783,上海市黄浦区,121.459686,0.0,386000,0,1,0.0,0.0,10000000.0,0,0,教育,0.0,上海,27,3
586,2000000.0,952,上海乐三兰馨教育发展基金会,31.271494,上海市普陀区,121.392853,2.0,143000,0,2,0.0,0.0,2000000.0,0,2000000,教育,0.0,上海,27,3
587,108324000.0,963,浙江马云公益基金会,30.286315,浙江省杭州市,120.08201,3.0,486000,19,3,1.0,4.0,2000000.0,0,6502700,安全救灾，扶贫助困，公益事业发展，环境,100000000.0,浙江,"24,19,28,17",11
588,4515000.0,949,武汉大学姚梅镇法学基金会,30.545217,湖北省武汉市武昌区,114.377535,0.0,9510,0,1,0.0,1.0,2000000.0,66700,66700,教育,0.0,湖北,27,17
589,50000000.0,957,巨人慈善基金会,31.060535,上海市松江区,121.274528,4.0,447000,19,5,0.0,0.0,50000000.0,0,4727500,安全救灾，残疾，环境，老年人,0.0,上海,"24,23,17,22",3
590,10160000.0,930,浙江湖畔大学创业研究基金会,30.232811,浙江省杭州市余杭区,120.141473,6.0,516000,0,2,0.0,0.0,2000000.0,0,170000,创业就业，教育,0.0,浙江,"25,27",11
591,,924,黑龙江省哈尔滨妇女儿童基金会,45.790196,黑龙江省哈尔滨市道外区,126.638107,7.0,40900,1,2,0.0,400.0,4000000.0,1604700,1030200,儿童，妇女,0.0,黑龙江,"6,7",9
592,2800000.0,909,厦门外国语学校教育基金会,24.48455,福建省厦门市思明区,118.09904,0.0,43300,0,2,0.0,0.0,2000000.0,0,434200,教育,0.0,福建,27,13
593,,896,上海觉群文教基金会,31.248246,上海市普陀区,121.452913,3.0,131000,34,6,0.0,969.0,3000000.0,2868884,3531458,教育，文化,0.0,上海,"27,13",3
594,0.0,865,北京老牛兄妹公益基金会,39.944782,北京市东城区,116.42202,,60600,2,0,,,2000000.0,0,0,创业就业，青少年,6000000.0,北京,"25,1",1
595,395737.29,859,宁波市善园公益基金会,29.81371,浙江省宁波市鄞州区,121.547991,0.0,65500,0,3,1.0,47033.0,10000000.0,1571800,804200,公共服务,20000000.0,浙江,20,11
596,50000000.0,841,中天爱心慈善基金会,30.244099,浙江省杭州市上城区,120.215961,0.0,300000,5,11,0.0,2600.0,50000000.0,16740000,9465000,公益事业发展,0.0,浙江,28,11
597,297833.0,802,武汉科技大学教育发展基金会,30.628161,湖北省武汉市青山区,114.377293,1.0,892000,0,1,0.0,0.0,2000000.0,96000,96000,教育,0.0,湖北,27,17
598,26799331.33,748,北京白求恩公益基金会,39.958594,北京市海淀区,116.363967,13.0,32100,4,4,0.0,100.0,2000000.0,3846600,670024,卫生保健,0.0,北京,11,1
599,9185252.0,742,北京市银杏公益基金会,39.9252,北京市朝阳区,116.463292,8.0,35800,3,2,0.0,5.0,2000000.0,3185252,308848,科学研究,,北京,10,1
600,2000000.0,586,北京麦田慈善基金会,40.006907,北京市朝阳区,116.488413,5.0,52000,22,0,0.0,0.0,2000000.0,0,0,扶贫助困，环境,0.0,北京,"19,17",1
601,,586,内蒙古光彩事业基金会,40.814597,内蒙古自治区呼和浩特市,111.682421,2.0,31400,1,0,0.0,0.0,4000000.0,0,0,扶贫助困，教育,0.0,内蒙古,"19,27",28
602,7500000.0,692,晋江市安海中心小学种胜教育基金会,24.714925,福建省泉州市晋江市,118.466452,0.0,4200,0,1,0.0,0.0,2000000.0,2500000,9800,教育,0.0,福建,27,13
603,50200000.0,712,东润公益基金会,39.92622,北京市朝阳区,116.469853,3.0,710000,5,1,0.0,0.0,50000000.0,0,2800000,安全救灾，扶贫助困，教育,0.0,北京,"24,19,27",1
604,3920000.0,1063,广东省广铝公益基金会,23.274328,广东省广州市白云区,113.220945,3.0,65800,5,6,0.0,0.0,2000000.0,0,2370000,创业就业，扶贫助困，教育,0.0,广东,"25,19,27",19
